mid,m_id,name,UATYPE,m_pop,m_house_unit,m_land,m_water,m_lat_d,m_long_d,m_lat_r,m_long_r
m37,37,"Abbeville, LA Urban Cluster",C,19824,8460,11.283,0.116,29.967602,-92.098219,0.5230333238272378,-1.6074171567727997
m64,64,"Abbeville, SC Urban Cluster",C,5243,2578,4.369,0.008,34.179237,-82.379726,0.5965402214694692,-1.4377974555907782
m91,91,"Abbotsford, WI Urban Cluster",C,3966,1616,2.071,0.005,44.948612,-90.315875,0.7845012736014334,-1.5763093855696337
m118,118,"Aberdeen, MS Urban Cluster",C,4666,2050,2.864,0.02,33.824742,-88.554591,0.5903531165376119,-1.5455691807069378
m145,145,"Aberdeen, SD Urban Cluster",C,25977,12114,12.742,0.096,45.463186,-98.471033,0.7934822841465907,-1.7186437436899895
m172,172,"Aberdeen, WA Urban Cluster",C,29856,13139,15.443,0.745,46.976365,-123.796056,0.819892239868626,-2.160648778183281
m199,199,"Aberdeen--Bel Air South--Bel Air North, MD Urbanized Area",U,213751,83721,131.131,3.794,39.508977,-76.30343,0.6895617327447118,-1.3317460840650168
m226,226,"Abernathy, TX Urban Cluster",C,2785,1124,1.178,0.005,33.830523,-101.846278,0.5904540140216695,-1.7775528820014654
m253,253,"Abilene, KS Urban Cluster",C,7054,3238,3.387,0.001,38.92106,-97.220754,0.6793006453662641,-1.696822258571447
m280,280,"Abilene, TX Urbanized Area",U,110421,46732,54.732,0.382,32.428466,-99.747188,0.5659835030710355,-1.7409168502057775
m334,334,"Abingdon, IL Urban Cluster",C,3389,1483,1.441,0.0,40.804182,-90.40152,0.7121673244830048,-1.5778041728075043
m388,388,"Ada, OH Urban Cluster",C,5945,1906,1.841,0.0,40.767274,-83.824641,0.7115231583626788,-1.463015979752232
m415,415,"Ada, OK Urban Cluster",C,17400,8086,11.936,0.034,34.774803,-96.669103,0.6069348090824016,-1.687194132299528
m450,450,"Adams, NY Urban Cluster",C,2542,1100,1.972,0.005,43.808664,-76.021178,0.7646054276999091,-1.3268198573446779
m469,469,"Adel, GA Urban Cluster",C,6986,2990,6.036,0.079,31.145731,-83.429099,0.543595553890466,-1.4561124695223087
m496,496,"Adel, IA Urban Cluster",C,3170,1317,1.785,0.0,41.612218,-94.020971,0.7262702131576497,-1.6409755098721055
m550,550,"Adjuntas, PR Urban Cluster",C,11122,4637,7.892,0.06,18.166604,-66.729934,0.31706705370597194,-1.1646570579385096
m577,577,"Adrian, MI Urban Cluster",C,44823,18178,24.023,0.237,41.914086,-84.049778,0.73153880366406,-1.4669453616702945
m631,631,"Aguadilla--Isabela--San Sebastiï¿½n, PR Urbanized Area",U,306196,138431,239.274,0.348,18.369286,-67.040259,0.32060452194049904,-1.1700732509397613
m658,658,"Ahoskie, NC Urban Cluster",C,4951,2267,2.916,0.0,36.287865,-76.983282,0.633342722769212,-1.3436117398912855
m676,676,"Air Force Academy, CO Urban Cluster",C,5512,326,2.494,0.0,38.985935,-104.858324,0.6804329277184955,-1.8301230019229906
m712,712,"Ajo, AZ Urban Cluster",C,3076,2006,2.666,0.0,32.38873,-112.868913,0.5652899790394631,-1.9699341549970308
m739,739,"Akron, NY Urban Cluster",C,2982,1426,2.618,0.0,43.020471,-78.493346,0.7508488647087375,-1.369967328607121
m766,766,"Akron, OH Urbanized Area",U,569499,257659,325.377,6.731,41.066225,-81.491897,0.7167408376148084,-1.4223019163460895
m793,793,"Alachua, FL Urban Cluster",C,4114,1816,3.769,0.012,29.791337,-82.507892,0.5199569192212099,-1.4400343742798891
m820,820,"Alamogordo, NM Urban Cluster",C,31862,14793,16.558,0.021,32.902756,-105.949613,0.5742614251803193,-1.849169588063787
m847,847,"Alamosa, CO Urban Cluster",C,9751,4057,7.292,0.0,37.458831,-105.872247,0.65377993489812,-1.847819296634689
m901,901,"Albany, GA Urbanized Area",U,95779,40430,70.845,1.077,31.591097,-84.168827,0.5513686569669031,-1.4690231586915012
m921,921,"Albany, MN Urban Cluster",C,2564,1070,1.672,0.11,45.630888,-94.569355,0.7964092362087704,-1.6505466162373619
m955,955,"Albany, OR Urbanized Area",U,56997,23542,23.963,0.116,44.630995,-123.091188,0.7789578111911265,-2.148346510791334
m970,970,"Albany--Schenectady, NY Urbanized Area",U,594962,266370,295.732,6.286,42.746355,-73.800509,0.7460646379763407,-1.288061871697708
m982,982,"Albemarle, NC Urban Cluster",C,16823,7929,17.148,0.024,35.375322,-80.189318,0.6174158428531854,-1.3995676240287542
m1009,1009,"Albert Lea, MN Urban Cluster",C,17868,8343,9.851,0.539,43.656119,-93.379007,0.7619430151924543,-1.6297711243928326
m1036,1036,"Albertville, AL Urban Cluster",C,36815,14980,35.845,1.998,34.268074,-86.223507,0.5980907196170633,-1.5048840897663784
m1063,1063,"Albia, IA Urban Cluster",C,3573,1660,2.161,0.0,41.027003,-92.805176,0.7160562845755911,-1.619755884092821
m1090,1090,"Albion, MI Urban Cluster",C,9219,3809,6.603,0.053,42.252722,-84.75533,0.7374491168298435,-1.4792595671143256
m1117,1117,"Albion, NY Urban Cluster",C,8171,2780,2.949,0.0,43.245788,-78.193603,0.7547813882194534,-1.3647358263473155
m1144,1144,"Albion, PA Urban Cluster",C,4574,1048,2.87,0.022,41.890344,-80.355166,0.7311244275930515,-1.4024622176866017
m1171,1171,"Albuquerque, NM Urbanized Area",U,741318,314851,250.569,3.444,35.141344,-106.62889,0.6133321563759541,-1.8610252082468564
m1198,1198,"Alderson, WV Urban Cluster",C,2632,789,1.328,0.036,37.727925,-80.649268,0.6584765111954817,-1.4075952659233022
m1225,1225,"Aledo, IL Urban Cluster",C,3655,1684,2.217,0.012,41.198542,-90.745194,0.7190502049211698,-1.5838024156610029
m1232,1232,"Aledo, TX Urban Cluster",C,4854,1620,4.684,0.067,32.680947,-97.647372,0.5703901278197633,-1.7042681473197203
m1252,1252,"Alexander City, AL Urban Cluster",C,9400,4326,9.714,0.025,32.939745,-85.957946,0.5749070050173396,-1.5002491759514898
m1279,1279,"Alexandria, LA Urbanized Area",U,82804,33935,65.542,0.35,31.260637,-92.506129,0.5456010419207625,-1.6145365293246094
m1306,1306,"Alexandria, MN Urban Cluster",C,16983,8604,14.851,2.873,45.900999,-95.3683,0.8011235625046246,-1.664490837029708
m1333,1333,"Alfred, NY Urban Cluster",C,4322,659,1.203,0.0,42.256634,-77.784266,0.7375173941101815,-1.3575915479470797
m1360,1360,"Algoma, WI Urban Cluster",C,3070,1655,1.848,0.041,44.607208,-87.444363,0.7785426497219547,-1.5261920466591063
m1387,1387,"Algona, IA Urban Cluster",C,5340,2618,2.65,0.017,43.072716,-94.228677,0.7517607119764419,-1.6446006634482528
m1414,1414,"Alice, TX Urban Cluster",C,20974,8017,10.869,0.0,27.752405,-98.075029,0.4843708425969369,-1.7117321700389219
m1441,1441,"Allegan, MI Urban Cluster",C,6322,2821,4.719,0.057,42.530023,-85.849978,0.7422889322989163,-1.4983647788646963
m1468,1468,"Allendale, SC Urban Cluster",C,3307,1567,2.297,0.0,33.008841,-81.311258,0.5761129577172974,-1.4191491710385793
m1495,1495,"Allentown, PA--NJ Urbanized Area",U,664651,271233,346.291,4.064,40.651115,-75.442168,0.7094958013568546,-1.3167142264427052
m1522,1522,"Alliance, NE Urban Cluster",C,8486,4073,4.654,0.012,42.100596,-102.87402,0.7347940172519547,-1.795490363762497
m1549,1549,"Alliance, OH Urban Cluster",C,32533,14786,17.705,0.107,40.914526,-81.09674,0.7140931905928255,-1.4154051256337863
m1603,1603,"Alma, GA Urban Cluster",C,3408,1427,2.822,0.14,31.541905,-82.469699,0.5505100946012621,-1.439367780678675
m1630,1630,"Alma--St. Louis, MI Urban Cluster",C,16924,5477,7.434,0.157,43.390662,-84.641513,0.7573099165199877,-1.4772730857195833
m1657,1657,"Almont, MI Urban Cluster",C,2719,1131,1.465,0.001,42.921599,-83.039777,0.7491232227707056,-1.4493175187718592
m1684,1684,"Alpena, MI Urban Cluster",C,14258,7137,9.462,0.707,45.063072,-83.453033,0.786498977463266,-1.456530196625481
m1711,1711,"Alpine, TX Urban Cluster",C,6013,3081,4.178,0.0,30.358305,-103.664632,0.5298523775746572,-1.8092891462682743
m1738,1738,"Altavista, VA Urban Cluster",C,4663,2234,5.564,0.048,37.113627,-79.294132,0.6477549885070655,-1.3839436809109964
m1765,1765,"Alton, IL--MO Urbanized Area",U,83890,38237,54.807,0.781,38.897683,-90.12829,0.6788926397470255,-1.5730354096922803
m1792,1792,"Altoona, PA Urbanized Area",U,79930,35760,37.394,0.065,40.485263,-78.393865,0.7066011378858371,-1.3682310576139447
m1819,1819,"Alturas, CA Urban Cluster",C,2910,1416,1.905,0.006,41.489183,-120.546287,0.7241228473124585,-2.103929609204038
m1846,1846,"Altus, OK Urban Cluster",C,19900,8973,12.151,0.201,34.652723,-99.310867,0.6048041111315671,-1.7333016121601834
m1873,1873,"Alva, OK Urban Cluster",C,5620,2616,2.627,0.0,36.801099,-98.664668,0.6423003459023927,-1.7220233119870887
m1900,1900,"Alvarado, TX Urban Cluster",C,4133,1630,2.835,0.008,32.412303,-97.216677,0.5657014055040357,-1.6967511014978436
m1927,1927,"Amarillo, TX Urbanized Area",U,196651,80744,81.177,0.606,35.197528,-101.849137,0.6143127521628947,-1.7776027809647799
m1981,1981,"American Falls, ID Urban Cluster",C,4488,1624,1.443,0.0,42.782316,-112.853104,0.7466922758286504,-1.9696582358955828
m2008,2008,"Americus, GA Urban Cluster",C,19106,7655,12.14,0.054,32.072568,-84.229191,0.5597719111697727,-1.470076709241175
m2035,2035,"Amery, WI Urban Cluster",C,2832,1412,2.062,0.429,45.306434,-92.364101,0.7907464456375046,-1.612057673094587
m2062,2062,"Ames, IA Urbanized Area",U,60438,24470,23.23,0.063,42.031532,-93.633771,0.7335886230573572,-1.6342175950083835
m2116,2116,"Amite City, LA Urban Cluster",C,6161,2313,7.015,0.016,30.733526,-90.52111,0.5364012194472828,-1.5798914120599639
m2143,2143,"Amory, MS Urban Cluster",C,6566,3028,5.554,0.011,33.984789,-88.48001,0.5931464636455511,-1.5442674966975078
m2170,2170,"Amsterdam, NY Urban Cluster",C,22262,10805,10.373,0.303,42.953162,-74.195033,0.7496741010425125,-1.2949476144758458
m2197,2197,"Anaconda-Deer Lodge County, MT Urban Cluster",C,6170,3411,2.404,0.0,46.131046,-112.957216,0.80513864008896,-1.9714753330864192
m2224,2224,"Anacortes, WA Urban Cluster",C,16712,8310,9.487,0.228,48.48661,-122.628592,0.8462509876304077,-2.1402726874847784
m2251,2251,"Anadarko, OK Urban Cluster",C,5929,2482,2.426,0.0,35.07139,-98.241232,0.6121112287510141,-1.714632959615614
m2278,2278,"Anamosa, IA Urban Cluster",C,5497,2088,2.11,0.0,42.110072,-91.276047,0.7349594046518737,-1.5930675483550927
m2305,2305,"Anchorage, AK Urbanized Area",U,251243,97417,84.982,1.026,61.167898,-149.847155,1.0675812166240544,-2.6153262294962834
m2332,2332,"Anchorage Northeast, AK Urban Cluster",C,28568,10116,16.32,0.14,61.329442,-149.535228,1.070400691310896,-2.609882076320415
m2359,2359,"Andalusia, AL Urban Cluster",C,6655,3187,5.763,0.013,31.311564,-86.479556,0.5464898857489258,-1.5093529878628174
m2386,2386,"Anderson, IN Urbanized Area",U,88133,40670,66.062,0.291,40.089827,-85.679807,0.6996994777049207,-1.495394734623285
m2413,2413,"Anderson, SC Urbanized Area",U,75702,34650,74.086,1.272,34.520717,-82.660933,0.6025001717991793,-1.4427054436204338
m2440,2440,"Andrews, SC Urban Cluster",C,3903,1709,3.004,0.0,33.45093,-79.56202,0.5838288663541468,-1.3886192085375788
m2467,2467,"Andrews, TX Urban Cluster",C,12346,4841,6.252,0.012,32.320646,-102.546505,0.5641016890715352,-1.7897741486628276
m2494,2494,"Angels, CA Urban Cluster",C,3751,1853,2.665,0.009,38.074409,-120.551042,0.6645237978009617,-2.10401259960997
m2548,2548,"Angola, IN Urban Cluster",C,11196,5828,9.108,1.523,41.661114,-85.016227,0.7271236093487049,-1.4838130787729011
m2575,2575,"Anna, IL Urban Cluster",C,6078,2815,3.979,0.018,37.460138,-89.251143,0.6538027463514436,-1.5577263065182894
m2581,2581,"Anna, TX Urban Cluster",C,10746,3809,6.984,0.012,33.377912,-96.566252,0.5825544618409256,-1.6853990437105593
m2590,2590,"Annandale, MN Urban Cluster",C,3262,1460,2.722,0.0,45.259981,-94.121617,0.7899356878400757,-1.6427321139510676
m2602,2602,"Ann Arbor, MI Urbanized Area",U,306022,133978,159.571,5.25,42.240003,-83.662679,0.7372271284022824,-1.460189209589117
m2629,2629,"Anniston--Oxford, AL Urbanized Area",U,79796,36090,86.769,0.535,33.664398,-85.828795,0.587554585801794,-1.4979950657692465
m2656,2656,"Antigo, WI Urban Cluster",C,8158,3916,4.183,0.033,45.142639,-89.153197,0.7878876835892006,-1.5560168263291312
m2683,2683,"Antioch, CA Urbanized Area",U,277634,93809,81.361,0.343,37.991687,-121.78212,0.6630800265371269,-2.125498964058837
m2710,2710,"Apalachicola, FL Urban Cluster",C,3691,2095,2.794,6.104,29.751831,-84.909118,0.519267409446917,-1.4819436740643825
m2764,2764,"Appleton, WI Urbanized Area",U,216154,92157,103.775,4.172,44.24668,-88.411096,0.7722502490763246,-1.5430647204967887
m2773,2773,"Apple Valley, OH Urban Cluster",C,4835,2492,4.745,0.789,40.438,-82.350123,0.705776242921467,-1.4372807857723102
m2791,2791,"Arab, AL Urban Cluster",C,8012,3635,8.371,0.117,34.320987,-86.513807,0.5990142256841711,-1.509950780584918
m2825,2825,"Arbuckle, CA Urban Cluster",C,2652,812,0.723,0.0,39.016726,-122.060221,0.680970332048477,-2.1303527421619255
m2845,2845,"Arcade, NY Urban Cluster",C,3048,1470,2.361,0.0,42.534572,-78.466924,0.7423683273265894,-1.369506177712159
m2899,2899,"Arcadia, LA Urban Cluster",C,2894,1188,2.749,0.0,32.552442,-92.923791,0.5681472924644879,-1.6218261063850739
m2901,2901,"Arcadia, WI Urban Cluster",C,2993,1235,2.109,0.0,44.249706,-91.490908,0.77230306273949,-1.5968175802392202
m2912,2912,"Arcadia--Southeast Arcadia, FL Urban Cluster",C,17490,7356,10.128,0.006,27.213341,-81.852437,0.47496240091796615,-1.4285945264312296
m2926,2926,"Arcata-McKinleyville, CA Urban Cluster",C,32364,14233,16.461,0.121,40.914605,-124.089324,0.7140945694029346,-2.1657672703740203
m2953,2953,"Archbold, OH Urban Cluster",C,4760,2046,3.775,0.015,41.525365,-84.293649,0.7247543423424151,-1.4712017135704256
m2965,2965,"Archer Lodge--Clayton, NC Urban Cluster",C,13288,4707,20.302,0.102,35.668587,-78.365739,0.6225342826840468,-1.3677401663085287
m2980,2980,"Arcola, IL Urban Cluster",C,2874,1122,1.349,0.017,39.684596,-88.302758,0.6926268625237716,-1.5411738656917628
m3007,3007,"Ardmore, OK Urban Cluster",C,20888,9566,11.673,0.03,34.178548,-97.14166,0.5965281961509229,-1.6954418078528746
m3034,3034,"Arecibo, PR Urbanized Area",U,139171,60653,84.07,0.615,18.4546,-66.80797,0.3220935321385455,-1.166019043073596
m3088,3088,"Arizona City, AZ Urban Cluster",C,10531,5068,4.668,0.072,32.749832,-111.673175,0.5715923978749995,-1.9490645899058188
m3115,3115,"Arkadelphia, AR Urban Cluster",C,10491,4057,5.795,0.0,34.124379,-93.067873,0.59558276874841,-1.6243408116779325
m3142,3142,"Arkansas City, KS Urban Cluster",C,13026,5906,9.636,0.053,37.060526,-97.034648,0.6468282012209641,-1.6935740961137307
m3158,3158,"Arlington, TN Urban Cluster",C,11502,3760,7.785,0.034,35.279993,-89.662679,0.6157520379305518,-1.5649089647087768
m3196,3196,"Arroyo Grande--Grover Beach, CA Urbanized Area",U,52000,25398,23.019,0.091,35.119408,-120.607531,0.6129493009512368,-2.1049985186511293
m3223,3223,"Artesia, NM Urban Cluster",C,12764,5269,6.53,0.007,32.837488,-104.414485,0.5731222836841277,-1.8223765500242315
m3250,3250,"Arvin, CA Urban Cluster",C,19573,4542,4.326,0.0,35.203012,-118.832555,0.6144084660190741,-2.07401934330725
m3277,3277,"Ashburn, GA Urban Cluster",C,4489,1940,3.161,0.04,31.700815,-83.650095,0.5532835973156062,-1.459969577356046
m3304,3304,"Ashdown, AR Urban Cluster",C,4146,1895,3.577,0.0,33.679701,-94.126094,0.5878216735372267,-1.6428102523416794
m3331,3331,"Asheboro, NC Urban Cluster",C,37792,16547,32.929,0.076,35.731271,-79.804262,0.6236283248723667,-1.3928471290241948
m3358,3358,"Asheville, NC Urbanized Area",U,280648,136493,264.877,2.431,35.536428,-82.66557,0.6202276729979035,-1.4427863745378489
m3365,3365,"Ashland, MO Urban Cluster",C,3527,1466,1.819,0.0,38.771719,-92.259128,0.6766941532080433,-1.6102255486188912
m3375,3375,"Ashland, NE Urban Cluster",C,2631,1128,1.248,0.026,41.040566,-96.366597,0.7162930035820391,-1.6819144065924898
m3385,3385,"Ashland, OH Urban Cluster",C,20226,8847,7.989,0.019,40.863585,-82.316997,0.7132041024185671,-1.4367026280042947
m3395,3395,"Ashland, PA Urban Cluster",C,7820,3446,5.654,0.0,40.772142,-76.320872,0.711608120990666,-1.3320505043931496
m3412,3412,"Ashland, WI Urban Cluster",C,7293,3452,4.336,0.0,46.578929,-90.881195,0.8129556731026699,-1.586176080897008
m3439,3439,"Ashland City, TN Urban Cluster",C,3384,1501,3.132,0.0,36.276595,-87.051506,0.6331460241625123,-1.519335398519599
m3466,3466,"Ashtabula, OH Urban Cluster",C,29346,14832,21.746,0.156,41.877017,-80.78496,0.7308918275636382,-1.4099635380919182
m3493,3493,"Ashville, OH Urban Cluster",C,6222,2565,5.524,0.114,39.718439,-82.967332,0.693217534302524,-1.448053114995252
m3520,3520,"Aspen, CO Urban Cluster",C,7710,6459,4.576,0.0,39.199309,-106.840314,0.6841570065566459,-1.8647152531645932
m3547,3547,"Astoria, OR Urban Cluster",C,14115,6907,9.112,0.633,46.17404,-123.835724,0.8058890269475625,-2.1613411153909623
m3601,3601,"Atchison, KS--MO Urban Cluster",C,11166,4489,6.06,0.062,39.570588,-95.137251,0.6906370475501579,-1.6604582712462679
m3655,3655,"Athens, AL Urban Cluster",C,24956,11020,27.027,0.194,34.8122,-86.951898,0.60758750986277,-1.5175969109582723
m3682,3682,"Athens, OH Urban Cluster",C,28286,9613,9.938,0.101,39.328457,-82.113077,0.6864110643790116,-1.433143552593628
m3709,3709,"Athens, TN Urban Cluster",C,15985,7376,14.855,0.0,35.448026,-84.600178,0.6186847670325555,-1.4765516538732713
m3736,3736,"Athens, TX Urban Cluster",C,12169,4891,9.16,0.025,32.201604,-95.847373,0.5620240142233761,-1.672852238237115
m3763,3763,"Athens-Clarke County, GA Urbanized Area",U,128754,55512,98.395,0.997,33.942069,-83.398271,0.5924008589890991,-1.4555744194205038
m3790,3790,"Athol, MA Urban Cluster",C,12834,5927,9.351,0.409,42.573322,-72.296365,0.7430446424117373,-1.2618096064735902
m3817,3817,"Atlanta, GA Urbanized Area",U,4515419,1861932,2645.352,36.106,33.824102,-84.331858,0.5903419464303991,-1.4718685864243202
m3844,3844,"Atlanta, TX Urban Cluster",C,5732,2678,7.462,0.039,33.125525,-94.167911,0.5781494777016947,-1.6435400966749858
m3871,3871,"Atlantic, IA Urban Cluster",C,6471,3102,2.819,0.028,41.40042,-95.007871,0.7225736407085107,-1.6582001642600375
m3898,3898,"Atlantic City, NJ Urbanized Area",U,248402,147060,125.137,4.462,39.371611,-74.590128,0.6871642437644172,-1.301843323084013
m3925,3925,"Atmore, AL Urban Cluster",C,6565,3121,4.731,0.016,31.021931,-87.487418,0.541434836276497,-1.5269434981685526
m3957,3957,"Atoka, TN Urban Cluster",C,18885,6695,20.665,0.091,35.431928,-89.797917,0.6184038039295694,-1.567269313082589
m3979,3979,"Attica, IN Urban Cluster",C,5193,2379,3.914,0.033,40.29083,-87.269893,0.7032076418613069,-1.5231469707131517
m4006,4006,"Attica, NY Urban Cluster",C,6828,1368,2.25,0.0,42.873714,-78.271755,0.7482874718583881,-1.3660998360643342
m4021,4021,"Aubrey, TX Urban Cluster",C,4139,1559,2.355,0.001,33.288048,-96.989229,0.5809860391619135,-1.6927813850207671
m4033,4033,"Auburn, AL Urbanized Area",U,74741,34604,49.908,0.351,32.614294,-85.443932,0.5692268135134315,-1.4912779392501436
m4054,4054,"Auburn, IL Urban Cluster",C,4433,1746,2.009,0.0,39.590007,-89.749535,0.6909759730376027,-1.566424887883889
m4060,4060,"Auburn, IN Urban Cluster",C,21712,9363,11.717,0.0,41.369835,-85.070784,0.7220398317567883,-1.484765278052912
m4087,4087,"Auburn, NE Urban Cluster",C,3474,1742,2.01,0.0,40.38848,-95.843424,0.7049119558758794,-1.6727833151849536
m4114,4114,"Auburn, NY Urban Cluster",C,32274,14870,12.904,0.092,42.926811,-76.561994,0.7492141893313196,-1.3362588771921433
m4130,4130,"Auburn--North Auburn, CA Urban Cluster",C,33157,14516,26.732,0.101,38.929947,-121.081669,0.6794557527768889,-2.11327378785995
m4168,4168,"Augusta, KS Urban Cluster",C,9350,3971,4.098,0.265,37.69194,-96.973193,0.6578484544641515,-1.6925015040219176
m4195,4195,"Augusta, ME Urban Cluster",C,22637,11691,17.33,0.285,44.265231,-69.782328,0.772574025105862,-1.2179313833066296
m4222,4222,"Augusta-Richmond County, GA--SC Urbanized Area",U,386787,165167,259.523,2.663,33.487951,-81.996378,0.5844750046965277,-1.431106770809843
m4249,4249,"Aumsville, OR Urban Cluster",C,3692,1282,1.151,0.0,44.845018,-122.866976,0.7826932172161225,-2.1444332731688522
m4276,4276,"Aurora, MO Urban Cluster",C,8365,3725,5.873,0.015,36.966708,-93.731351,0.6451907682233279,-1.6359206872924796
m4303,4303,"Aurora, NE Urban Cluster",C,4466,1933,2.11,0.006,40.867831,-98.003674,0.7132782090986068,-1.7104867903511611
m4330,4330,"Au Sable, MI Urban Cluster",C,6384,4799,10.451,0.26,44.453095,-83.346512,0.7758528704518286,-1.4546710544529642
m4357,4357,"Austin, MN Urban Cluster",C,25103,11089,12.225,0.098,43.671232,-92.977883,0.7622067868023084,-1.6227701898840627
m4384,4384,"Austin, TX Urbanized Area",U,1362416,566966,523.034,4.611,30.358509,-97.761515,0.5298559380463311,-1.7062603184878244
m4411,4411,"Ava, MO Urban Cluster",C,2857,1424,2.09,0.0,36.954458,-92.661589,0.6449769653899587,-1.6172498181797599
m4438,4438,"Avalon, CA Urban Cluster",C,3652,2244,1.326,0.0,33.341589,-118.328722,0.5819205058967237,-2.0652257985770497
m4465,4465,"Avenal, CA Urban Cluster",C,15486,2402,3.055,0.0,35.993168,-120.126356,0.6281992898234623,-2.0966004306228454
m4519,4519,"Avon, NY Urban Cluster",C,4973,2274,3.898,0.0,42.899102,-77.741633,0.7487305760488845,-1.3568474617270767
m4549,4549,"Avondale--Goodyear, AZ Urbanized Area",U,197041,73521,87.917,0.134,33.472717,-112.399026,0.5842091212382788,-1.9617330797347121
m4573,4573,"Avra Valley, AZ Urban Cluster",C,3869,1565,3.91,0.0,32.42773,-111.326681,0.5659706574477407,-1.9430171287674132
m4587,4587,"Aztec, NM Urban Cluster",C,8456,3553,6.314,0.117,36.833747,-107.9963,0.6428701609965838,-1.8848910149715523
m4600,4600,"Bad Axe, MI Urban Cluster",C,3490,1719,2.494,0.0,43.802432,-82.998022,0.7644966587809249,-1.4485887565426891
m4627,4627,"Bainbridge, GA Urban Cluster",C,12118,5320,10.312,0.251,30.904879,-84.566449,0.5393918934804527,-1.4759629717698661
m4654,4654,"Baker City, OR Urban Cluster",C,9518,4498,5.021,0.069,44.78391,-117.829271,0.7816266814168138,-2.0565087341746713
m4681,4681,"Bakersfield, CA Urbanized Area",U,523994,178519,138.439,0.867,35.362282,-119.030559,0.6171882519187254,-2.077475165039369
m4708,4708,"Bald Knob, AR Urban Cluster",C,2517,1151,2.267,0.0,35.31222,-91.574197,0.6163145051885921,-1.5982712475199137
m4762,4762,"Baldwin, WI Urban Cluster",C,5831,2474,3.703,0.0,44.974871,-92.428348,0.7849595796097146,-1.6131789947791157
m4789,4789,"Baldwin City, KS Urban Cluster",C,4428,1624,2.055,0.002,38.777506,-95.18748,0.6767951554118563,-1.6613349326762519
m4816,4816,"Ballinger, TX Urban Cluster",C,3705,1744,2.016,0.0,31.742185,-99.955801,0.5540056400271562,-1.7445578339182406
m4843,4843,"Baltimore, MD Urbanized Area",U,2203663,939420,717.035,25.336,39.234099,-76.64776,0.6847642066034146,-1.337755776278409
m4870,4870,"Baltimore, OH Urban Cluster",C,3503,1496,2.683,0.0,39.843836,-82.587278,0.6954061248246475,-1.4414199213598775
m4897,4897,"Bamberg, SC Urban Cluster",C,3492,1526,2.795,0.0,33.29856,-81.029973,0.581169508172883,-1.4142398216521073
m4924,4924,"Bandon, OR Urban Cluster",C,3119,1858,2.204,0.003,43.113779,-124.415518,0.7524773965271883,-2.1714604296742706
m4951,4951,"Bangor, ME Urbanized Area",U,61210,27142,42.507,1.43,44.834066,-68.748807,0.782502068756444,-1.1998930389681253
m5005,5005,"Baraboo, WI Urban Cluster",C,13759,6380,6.214,0.072,43.468312,-89.746773,0.7586651646841613,-1.566376681889949
m5032,5032,"Barbourville, KY Urban Cluster",C,6300,2867,5.054,0.061,36.860742,-83.854763,0.6433413126281597,-1.4635417078295179
m5059,5059,"Bardstown, KY Urban Cluster",C,18702,7927,16.987,0.149,37.83555,-85.464342,0.6603549218029405,-1.4916341609504755
m5086,5086,"Bar Harbor, ME Urban Cluster",C,2575,1745,1.695,0.0,44.392235,-68.2218,0.774790663069065,-1.1906950316370675
m5113,5113,"Barnesville, GA Urban Cluster",C,7167,2769,5.426,0.04,33.052313,-84.154709,0.5768716872497245,-1.4687767531077047
m5140,5140,"Barnesville, OH Urban Cluster",C,4351,2051,1.99,0.012,39.988942,-81.172519,0.6979387022890463,-1.416727718687655
m5167,5167,"Barnstable Town, MA Urbanized Area",U,246695,162112,277.257,22.569,41.622829,-70.576489,0.7264554100445789,-1.2317921075475602
m5194,5194,"Barnwell, SC Urban Cluster",C,3949,1849,3.62,0.015,33.24861,-81.361274,0.5802977162115118,-1.420022114917257
m5221,5221,"Barre--Montpelier, VT Urban Cluster",C,21675,10676,17.71,0.212,44.198429,-72.517883,0.7714081102589447,-1.2656758249260232
m5248,5248,"Barron, WI Urban Cluster",C,3292,1469,1.913,0.019,45.40188,-91.852846,0.792412292595363,-1.6031345900273033
m5275,5275,"Barrow, AK Urban Cluster",C,3835,1370,0.795,0.187,71.293793,-156.762893,1.2443114240852855,-2.736028627801571
m5302,5302,"Barstow, CA Urban Cluster",C,28973,11905,12.347,0.0,34.888022,-117.038437,0.608910853408217,-2.0427060770379546
m5329,5329,"Bartlesville, OK Urban Cluster",C,38874,18205,24.499,0.012,36.745394,-95.956329,0.6413281102425692,-1.6747538791769179
m5356,5356,"Bartlett, TX Urban Cluster",C,2653,621,1.062,0.0,30.796199,-97.433073,0.5374950696493852,-1.700527924185989
m5410,5410,"Basalt--El Jebel, CO Urban Cluster",C,8531,3464,4.043,0.01,39.388924,-107.087515,0.687466412617815,-1.8690297245288154
m5423,5423,"Basehor, KS Urban Cluster",C,3849,1546,2.469,0.04,39.127539,-94.941756,0.6829043837524895,-1.6570462398250814
m5437,5437,"Bastrop, LA Urban Cluster",C,13979,5959,10.078,0.041,32.776783,-91.913851,0.5720627815617045,-1.6041993281374824
m5464,5464,"Bastrop, TX Urban Cluster",C,13371,4887,11.474,0.131,30.100757,-97.282416,0.5253573169927308,-1.6978984634948118
m5491,5491,"Batavia, NY Urban Cluster",C,17834,7955,8.001,0.082,43.002665,-78.177406,0.7505380913821273,-1.3644531353683702
m5518,5518,"Batesburg-Leesville, SC Urban Cluster",C,5267,2403,5.79,0.049,33.908055,-81.510262,0.5918072026973258,-1.4226224460632182
m5545,5545,"Batesville, AR Urban Cluster",C,11513,4955,9.204,0.082,35.7706,-91.633541,0.6243147454138837,-1.599306995711217
m5572,5572,"Batesville, IN Urban Cluster",C,7734,3222,6.021,0.046,39.297786,-85.199674,0.6858757544441324,-1.4870148329258073
m5599,5599,"Batesville, MS Urban Cluster",C,7309,3027,8.24,0.0,34.30405,-89.942143,0.5987186192687608,-1.5697865316495703
m5653,5653,"Bath, NY Urban Cluster",C,7124,3428,4.279,0.099,42.34625,-77.31417,0.7390814883726486,-1.3493868249466243
m5680,5680,"Baton Rouge, LA Urbanized Area",U,594309,246028,366.794,4.534,30.427885,-91.038912,0.5310667776681948,-1.588928761833376
m5707,5707,"Battle Creek, MI Urbanized Area",U,78393,36200,53.021,1.365,42.31374,-85.197926,0.7385140818328255,-1.4869843245704824
m5734,5734,"Battlement Mesa, CO Urban Cluster",C,5071,2666,2.926,0.0,39.453934,-108.05174,0.6886010511645364,-1.8858586255088574
m5761,5761,"Battle Mountain, NV Urban Cluster",C,3520,1466,1.946,0.0,40.638336,-116.946269,0.7092727657317424,-2.0410974419729766
m5788,5788,"Baxley, GA Urban Cluster",C,5208,2397,5.672,0.008,31.771186,-82.346883,0.5545118029635272,-1.4372242371045458
m5815,5815,"Baxter Springs, KS Urban Cluster",C,5089,2383,4.395,0.0,37.021334,-94.737759,0.6461441717805224,-1.6534858205108904
m5842,5842,"Bayard, NM Urban Cluster",C,4309,2022,2.696,0.013,32.764665,-108.140268,0.5718512825629479,-1.8874037305890634
m5869,5869,"Bay City, MI Urbanized Area",U,70585,32513,40.328,1.609,43.608621,-83.890506,0.7611140187043421,-1.4641655408640581
m5896,5896,"Bay City, TX Urban Cluster",C,18745,8277,9.345,0.01,28.980702,-95.954928,0.5058086694393057,-1.6747294271140976
m5904,5904,"Bayfield, CO Urban Cluster",C,2578,1069,1.825,0.0,37.241913,-107.596729,0.6499940015912788,-1.8779171854260657
m5923,5923,"Bay Minette, AL Urban Cluster",C,7486,2854,5.743,0.054,30.883529,-87.775532,0.5390192656851518,-1.5319720360896432
m5958,5958,"Bealeton, VA Urban Cluster",C,6621,2328,3.684,0.012,38.567378,-77.786511,0.6731277299612256,-1.357630730588787
m5977,5977,"Beardstown, IL Urban Cluster",C,6530,2554,2.882,0.082,40.013734,-90.423739,0.6983714043172007,-1.578191967514005
m6004,6004,"Beatrice, NE Urban Cluster",C,12405,5943,6.715,0.066,40.267398,-96.743305,0.7027986763109796,-1.6884892015110928
m6031,6031,"Beaufort--Port Royal, SC Urban Cluster",C,48807,19864,45.903,5.04,32.421911,-80.716405,0.5658690967385673,-1.4087670276232136
m6058,6058,"Beaumont, TX Urbanized Area",U,147922,63365,91.682,1.108,30.11918,-94.127119,0.5256788590008257,-1.6428281419665123
m6076,6076,"Beaver, UT Urban Cluster",C,2882,1169,2.063,0.0,38.278839,-112.636173,0.6680917743908137,-1.965872075695939
m6085,6085,"Beaver Dam, KY Urban Cluster",C,6321,2699,4.18,0.015,37.398446,-86.874001,0.6527260178293033,-1.5162373518308465
m6112,6112,"Beaver Dam, WI Urban Cluster",C,17833,8063,7.882,0.028,43.465787,-88.83322,0.7586210951205485,-1.550432174148477
m6128,6128,"Becker, MN Urban Cluster",C,3898,1413,1.944,0.002,45.40383,-93.874419,0.792446326515777,-1.6384176949467226
m6139,6139,"Beckley, WV Urbanized Area",U,64022,29519,60.971,0.281,37.789182,-81.229955,0.6595456475353758,-1.4177301659968304
m6166,6166,"Bedford, IN Urban Cluster",C,14977,7333,11.736,0.001,38.856653,-86.501238,0.6781765311549321,-1.5097314101512347
m6186,6186,"Bedford, NY Urban Cluster",C,2679,930,3.922,0.055,41.175873,-73.651221,0.7186545562330351,-1.2854563045639906
m6193,6193,"Bedford, PA Urban Cluster",C,4693,2445,3.282,0.08,40.024894,-78.505088,0.6985661830617234,-1.3701722651678903
m6220,6220,"Bedford, VA Urban Cluster",C,6829,3192,6.71,0.011,37.338355,-79.525928,0.6516772320284874,-1.387989284303949
m6247,6247,"Beebe, AR Urban Cluster",C,6714,2872,4.395,0.0,35.069171,-91.893049,0.6120724998949123,-1.6038362647464828
m6261,6261,"Beecher, IL Urban Cluster",C,4148,1597,2.019,0.0,41.350979,-87.620537,0.7217107324730323,-1.5292668630155148
m6274,6274,"Beeville, TX Urban Cluster",C,18168,6295,12.164,0.0,28.389754,-97.732665,0.4954946811312303,-1.705756790998624
m6301,6301,"Belding, MI Urban Cluster",C,5789,2456,4.764,0.181,43.096485,-85.233029,0.7521755592863485,-1.48759698749781
m6335,6335,"Belfair, WA Urban Cluster",C,3331,1578,2.99,0.001,47.448543,-122.857433,0.8281333006241078,-2.1442667163983344
m6355,6355,"Belfast, ME Urban Cluster",C,3358,1998,2.647,0.161,44.423628,-69.005594,0.7753385742811435,-1.204374817594444
m6382,6382,"Belgrade, MT Urban Cluster",C,13797,5565,10.426,0.045,45.7824,-111.187577,0.7990536194650519,-1.9405893059647192
m6436,6436,"Bellefontaine, OH Urban Cluster",C,13235,6093,5.418,0.0,40.359148,-83.752872,0.7044000158996844,-1.461763374401368
m6463,6463,"Bellefonte, PA Urban Cluster",C,12888,5825,9.579,0.0,40.915292,-77.742364,0.7141065598148958,-1.3568602200839088
m6490,6490,"Belle Fourche, SD Urban Cluster",C,5240,2367,2.643,0.0,44.664941,-103.85024,0.7795502806590086,-1.812528616986316
m6517,6517,"Belle Glade, FL Urban Cluster",C,24870,7729,8.296,0.011,26.684083,-80.678914,0.46572510622544605,-1.4081126862333484
m6571,6571,"Belle Plaine, MN Urban Cluster",C,6174,2321,2.6,0.0,44.620047,-93.7646,0.7787667325446183,-1.6365009918154751
m6598,6598,"Bellevue, IA Urban Cluster",C,2543,1286,1.618,0.0,42.26479,-90.431551,0.7376597431639742,-1.5783283126351704
m6625,6625,"Bellevue, OH Urban Cluster",C,8413,3751,5.31,0.116,41.277074,-82.84458,0.7204208468893458,-1.4459106884318438
m6652,6652,"Bellingham, WA Urbanized Area",U,114473,50696,48.122,3.518,48.775245,-122.477024,0.8512886187169015,-2.1376273268441155
m6679,6679,"Bellows Falls, VT--NH Urban Cluster",C,5713,2699,3.919,0.17,43.124336,-72.449947,0.7526616509363213,-1.264490118045388
m6692,6692,"Bells, TN Urban Cluster",C,4758,2051,4.058,0.007,35.727033,-89.086115,0.6235543578186673,-1.5548460245603084
m6706,6706,"Bellville, TX Urban Cluster",C,4002,1776,2.287,0.01,29.946233,-96.260553,0.522660364419379,-1.680063589640505
m6733,6733,"Beloit, KS Urban Cluster",C,3295,1645,1.801,0.0,39.461193,-98.105959,0.6887277446149387,-1.7122720003765635
m6760,6760,"Beloit, WI--IL Urbanized Area",U,63835,26314,34.349,0.909,42.509483,-89.026108,0.7419304416705568,-1.553798704836064
m6770,6770,"Belterra, TX Urban Cluster",C,3731,1222,3.505,0.0,30.186312,-98.001969,0.5268505334342745,-1.7104570324874147
m6779,6779,"Belton, SC Urban Cluster",C,5443,2646,5.362,0.017,34.528131,-82.498225,0.6026295705099223,-1.439865653301099
m6787,6787,"Belvidere, NJ--PA Urban Cluster",C,3881,1863,2.247,0.021,40.825338,-75.071549,0.7125365663395568,-1.3102457046222566
m6814,6814,"Belzoni, MS Urban Cluster",C,4702,1771,2.301,0.0,33.181941,-90.490257,0.5791341226524997,-1.5793529256258463
m6841,6841,"Bemidji, MN Urban Cluster",C,14626,6213,11.247,0.017,47.480112,-94.883524,0.8286842836156698,-1.6560298996950598
m6868,6868,"Bend, OR Urbanized Area",U,83794,38921,39.712,0.217,44.04927,-121.312835,0.7688047945999625,-2.117308395678615
m6895,6895,"Bennettsville, SC Urban Cluster",C,13006,4758,8.383,0.494,34.628189,-79.685901,0.6043759120528827,-1.3907813398682418
m6922,6922,"Bennington, VT Urban Cluster",C,12723,5457,7.638,0.102,42.892667,-73.202052,0.7486182641115187,-1.2776168266160999
m6949,6949,"Benson, AZ Urban Cluster",C,4036,2328,2.504,0.002,31.961904,-110.293426,0.5578404600063457,-1.9249834270047195
m6976,6976,"Benson, MN Urban Cluster",C,3191,1582,1.743,0.0,45.316565,-95.602636,0.7909232649440241,-1.6685807717856616
m7003,7003,"Benson, NC Urban Cluster",C,3107,1520,2.545,0.005,35.383812,-78.546691,0.6175640213066799,-1.3708983744965972
m7030,7030,"Benton, IL Urban Cluster",C,7778,3757,4.268,0.013,37.999962,-88.918322,0.6632244525327294,-1.5519174842485093
m7057,7057,"Benton, KY Urban Cluster",C,4447,2090,4.603,0.014,36.851835,-88.359536,0.6431858561516846,-1.5421648287344605
m7084,7084,"Benton, LA Urban Cluster",C,5371,2118,4.512,0.305,32.658272,-93.714164,0.5699943744118735,-1.635620717553939
m7111,7111,"Benton City, WA Urban Cluster",C,4140,1569,2.427,0.026,46.277749,-119.487108,0.8076990904615133,-2.085443448286057
m7138,7138,"Benton Harbor--St. Joseph--Fair Plain, MI Urbanized Area",U,61022,28006,46.672,0.993,42.066309,-86.466585,0.7341955962113232,-1.5091266012055409
m7165,7165,"Berea, KY Urban Cluster",C,15590,6347,13.197,0.058,37.583562,-84.293019,0.655956901527425,-1.471190717996138
m7192,7192,"Berlin, NH Urban Cluster",C,11159,5570,5.459,0.2,44.458649,-71.17594,0.7759498060384845,-1.2422545012019326
m7219,7219,"Berlin, WI Urban Cluster",C,4891,2230,2.327,0.006,43.971548,-88.945505,0.7674482897987275,-1.552391917099079
m7246,7246,"Berne, IN Urban Cluster",C,5490,2494,4.547,0.159,40.606074,-84.944998,0.7087096876084639,-1.4825698981999982
m7273,7273,"Berrien Springs, MI Urban Cluster",C,7358,2687,4.961,0.202,41.950895,-86.340788,0.7321812419084267,-1.50693102936641
m7300,7300,"Berryville, AR Urban Cluster",C,4800,1984,3.994,0.0,36.370618,-93.565675,0.634787035085115,-1.6330290956009454
m7327,7327,"Berryville, VA Urban Cluster",C,4277,1839,1.973,0.001,39.153421,-77.980386,0.6833561098694908,-1.3610144876760908
m7354,7354,"Bethany, MO Urban Cluster",C,2652,1332,1.532,0.0,40.265875,-94.035182,0.7027720949464717,-1.6412235386121066
m7381,7381,"Bethel, AK Urban Cluster",C,4434,1743,2.422,0.058,60.79492,-161.782459,1.061071522486551,-2.8236365815227327
m7408,7408,"Bethel, OH Urban Cluster",C,3239,1395,1.624,0.002,38.964135,-84.083101,0.6800524459415608,-1.4675269577369365
m7462,7462,"Beulah, ND Urban Cluster",C,2949,1442,1.382,0.0,47.265005,-101.781735,0.8249299582215825,-1.7764263941423508
m7489,7489,"Bicknell, IN Urban Cluster",C,3217,1656,1.693,0.0,38.776776,-87.305074,0.6767824145083167,-1.523760994997296
m7508,7508,"Big Bear City, CA Urban Cluster",C,15873,20707,16.149,0.213,34.246421,-116.879711,0.5977128034741289,-2.0399357857294342
m7543,7543,"Big Lake, TX Urban Cluster",C,2919,1081,1.064,0.0,31.19452,-101.459125,0.5444470825792216,-1.7707957874424918
m7597,7597,"Big Pine Key, FL Urban Cluster",C,7540,5958,7.621,1.456,24.664177,-81.418596,0.43047109594465743,-1.421022572551085
m7624,7624,"Big Rapids, MI Urban Cluster",C,14241,5117,9.317,0.066,43.686655,-85.474765,0.7624759689328434,-1.491816076618411
m7651,7651,"Big Spring, TX Urban Cluster",C,27987,9922,14.725,0.026,32.244366,-101.470756,0.5627703519181139,-1.7709987866877912
m7678,7678,"Big Stone Gap, VA Urban Cluster",C,8240,3390,6.219,0.094,36.872925,-82.760612,0.6435539460909301,-1.4444451703655292
m7705,7705,"Billings, MT Urbanized Area",U,114773,50475,52.965,0.188,45.79132,-108.53184,0.7992093028343297,-1.8942379512476823
m7732,7732,"Binghamton, NY--PA Urbanized Area",U,158084,71772,74.142,3.492,42.105366,-75.962775,0.7348772694572747,-1.3258005327016356
m7759,7759,"Birch Bay, WA Urban Cluster",C,12737,7626,12.544,0.05,48.955394,-122.756978,0.8544328119110768,-2.1425134458982438
m7786,7786,"Birmingham, AL Urbanized Area",U,749495,337693,529.896,4.031,33.469106,-86.791975,0.5841460973989892,-1.5148057280586054
m7813,7813,"Bisbee, AZ Urban Cluster",C,5541,3253,3.119,0.0,31.392958,-109.920071,0.547910479040294,-1.9184671529759356
m7824,7824,"Biscoe, NC Urban Cluster",C,2821,1071,3.539,0.0,35.371683,-79.784142,0.6173523303217053,-1.3924959687786937
m7840,7840,"Bishop, CA Urban Cluster",C,9935,4619,4.26,0.02,37.365976,-118.415939,0.6521593094211808,-2.0667480223907613
m7867,7867,"Bishop, TX Urban Cluster",C,3116,1256,1.44,0.0,27.584789,-97.795576,0.4814453915179141,-1.706854795084346
m7894,7894,"Bishopville, SC Urban Cluster",C,5391,1712,2.304,0.0,34.218215,-80.247396,0.5972205159053114,-1.4005812763517274
m7921,7921,"Bismarck, ND Urbanized Area",U,81955,37317,38.758,0.696,46.819853,-100.800391,0.8171605901497446,-1.7592987102476596
m7948,7948,"Blackfoot, ID Urban Cluster",C,15352,5686,12.361,0.028,43.19907,-112.389519,0.7539660052995067,-1.961567151282725
m7975,7975,"Black River Falls, WI Urban Cluster",C,5677,2234,5.372,0.069,44.307328,-90.841897,0.7733087563610741,-1.5854902014075594
m8002,8002,"Blacksburg, VA Urbanized Area",U,88542,35430,51.21,0.221,37.123193,-80.421067,0.6479219467033113,-1.4036124071169584
m8029,8029,"Blackshear, GA Urban Cluster",C,3873,1742,3.364,0.014,31.29937,-82.243468,0.5462770602999375,-1.4354193048585957
m8056,8056,"Blackstone, VA Urban Cluster",C,3232,1476,1.673,0.001,37.078886,-78.000023,0.64714864367163,-1.361357217981305
m8083,8083,"Blackwell, OK Urban Cluster",C,6916,3315,3.523,0.007,36.799819,-97.29264,0.6422780056879671,-1.698076905957536
m8137,8137,"Blair, NE Urban Cluster",C,7844,3312,4.013,0.0,41.544788,-96.132528,0.72509333764303,-1.677829131865639
m8164,8164,"Blairsville, PA Urban Cluster",C,7060,3231,6.082,0.034,40.443612,-79.227356,0.7058741907990889,-1.3827782198496845
m8191,8191,"Blakely, GA Urban Cluster",C,3748,1513,3.073,0.0,31.37586,-84.934876,0.547612062644788,-1.4823932359731113
m8209,8209,"Blanchard, OK Urban Cluster",C,3434,1391,3.268,0.002,35.154806,-97.657234,0.6135671125998577,-1.704440271690552
m8218,8218,"Blanchester, OH Urban Cluster",C,4184,1829,2.912,0.098,39.287549,-83.975993,0.6856970850886057,-1.4656575704817105
m8245,8245,"Blanding, UT Urban Cluster",C,3264,1059,1.67,0.0,37.625871,-109.481413,0.6566953328806513,-1.9108111265857226
m8272,8272,"Blissfield, MI Urban Cluster",C,3303,1460,1.817,0.012,41.835576,-83.870515,0.7301685456683193,-1.463816632093292
m8299,8299,"Bloomer, WI Urban Cluster",C,3348,1566,1.966,0.13,45.10406,-91.494219,0.7872143530170735,-1.596875368090754
m8326,8326,"Bloomfield, IN Urban Cluster",C,2521,1263,1.225,0.0,39.025952,-86.938663,0.681131356125266,-1.517365916631771
m8353,8353,"Bloomfield, NM Urban Cluster",C,9892,3710,7.544,0.04,36.711886,-107.985398,0.640743285316811,-1.8847007391764996
m8380,8380,"Bloomington, IN Urbanized Area",U,108657,45637,44.798,0.02,39.162873,-86.548361,0.6835210783903892,-1.510553861654652
m8407,8407,"Bloomington--Normal, IL Urbanized Area",U,132600,54479,49.194,0.074,40.493927,-88.978753,0.7067523532122298,-1.552972204168782
m8434,8434,"Bloomsburg--Berwick, PA Urbanized Area",U,53618,23149,32.685,1.21,41.016958,-76.41213,0.7158809662522283,-1.3336432569619348
m8461,8461,"Blountstown, FL Urban Cluster",C,4751,1349,3.942,0.01,30.434752,-85.056215,0.5311866294279293,-1.4845110010341886
m8488,8488,"Blue Earth, MN Urban Cluster",C,3257,1595,1.743,0.016,43.637847,-94.100266,0.76162410863153,-1.6423594687024745
m8515,8515,"Bluefield, WV--VA Urban Cluster",C,44092,21466,42.486,0.168,37.246327,-81.322235,0.650071040424462,-1.4193407558305708
m8542,8542,"Bluffton, IN Urban Cluster",C,9952,4553,6.644,0.077,40.751051,-85.171967,0.7112400135981276,-1.486531254549957
m8569,8569,"Bluffton, OH Urban Cluster",C,4215,1556,2.185,0.063,40.890826,-83.894537,0.7136795475601028,-1.464235895086206
m8623,8623,"Blythe, CA--AZ Urban Cluster",C,12967,5251,6.178,0.001,33.611802,-114.586127,0.586636612428415,-1.9999051932583727
m8650,8650,"Blytheville, AR Urban Cluster",C,18219,8386,9.109,0.029,35.930795,-89.924251,0.627110675609116,-1.5694742573398033
m8677,8677,"Boardman, OR Urban Cluster",C,3362,1055,2.878,0.0,45.835559,-119.696376,0.7999814190421196,-2.0890958639051203
m8704,8704,"Boerne, TX Urban Cluster",C,10467,4530,7.002,0.0,29.781745,-98.72674,0.5197895072393586,-1.7231066727603868
m8731,8731,"Bogalusa, LA Urban Cluster",C,12213,5780,8.287,0.03,30.780931,-89.86452,0.5372285927791907,-1.5684317547242945
m8749,8749,"Boiling Spring Lakes, NC Urban Cluster",C,4397,1975,3.487,0.547,34.041667,-78.04488,0.5941391720175004,-1.3621401203238723
m8758,8758,"Boiling Springs, NC Urban Cluster",C,4549,1401,3.67,0.0,35.256034,-81.657863,0.6153338744950665,-1.4251985694924545
m8785,8785,"Boise City, ID Urbanized Area",U,349684,146177,133.828,1.616,43.617235,-116.292336,0.761264361366109,-2.0296841580355323
m8812,8812,"Bolivar, MO Urban Cluster",C,9693,4184,5.366,0.008,37.606697,-93.416709,0.656360683449874,-1.6304291484274196
m8839,8839,"Bolivar, OH Urban Cluster",C,3717,1589,3.615,0.014,40.639605,-81.432248,0.7092949139599503,-1.4212608449005673
m8866,8866,"Bolivar, TN Urban Cluster",C,5394,2220,4.988,0.0,35.259901,-88.9952,0.6154013663772411,-1.5532592584708573
m8893,8893,"Bonadelle Ranchos-Madera Ranchos, CA Urban Cluster",C,8024,2732,8.89,0.0,36.986902,-119.873482,0.6455432200124757,-2.0921869467301573
m8920,8920,"Bonham, TX Urban Cluster",C,9995,3332,5.21,0.0,33.588004,-96.184028,0.5862212589730255,-1.6787279764304166
m8947,8947,"Bonifay, FL Urban Cluster",C,4230,1268,3.57,0.011,30.778853,-85.6824,0.5371923248373343,-1.4954399910107894
m8974,8974,"Bonita Springs, FL Urbanized Area",U,310298,209911,186.96,14.307,26.210606,-81.744876,0.45746137364298084,-1.4267172328344924
m8992,8992,"Bonneauville, PA Urban Cluster",C,4427,1811,3.179,0.226,39.812523,-77.173011,0.6948596098759704,-1.3469231356278017
m9001,9001,"Bonners Ferry, ID Urban Cluster",C,2613,1288,2.042,0.025,48.689926,-116.322351,0.8497995212523924,-2.0302080186105185
m9028,9028,"Boone, IA Urban Cluster",C,12793,5981,9.273,0.0,42.056693,-93.880639,0.7340277653504516,-1.6385262544261967
m9055,9055,"Boone, NC Urban Cluster",C,22763,8927,13.467,0.042,36.212553,-81.651366,0.6320282804029501,-1.4250851754509521
m9082,9082,"Booneville, AR Urban Cluster",C,3335,1554,1.924,0.0,35.138439,-93.920088,0.6132814545611837,-1.639214769362816
m9109,9109,"Booneville, MS Urban Cluster",C,6050,2565,5.625,0.009,34.658373,-88.554475,0.6049027222343045,-1.5455671561250055
m9163,9163,"Boonville, IN Urban Cluster",C,6258,2914,2.581,0.013,38.046357,-87.272626,0.6640341980391922,-1.5231946705616088
m9190,9190,"Boonville, MO Urban Cluster",C,9229,3752,5.726,0.088,38.971691,-92.74673,0.6801843230198414,-1.6187358089582002
m9217,9217,"Borger, TX Urban Cluster",C,13574,6468,12.566,0.004,35.666797,-101.399608,0.622503041290436,-1.7697570198315824
m9244,9244,"Boscobel, WI Urban Cluster",C,3261,1322,1.542,0.0,43.136647,-90.699795,0.7528765184205345,-1.5830100536338902
m9271,9271,"Boston, MA--NH--RI Urbanized Area",U,4181019,1719241,1873.456,77.943,42.373132,-71.140708,0.7395506677821698,-1.2416395867998702
m9298,9298,"Boulder, CO Urbanized Area",U,114591,51299,32.487,0.273,40.027135,-105.23905,0.6986052958902605,-1.8367679241709387
m9325,9325,"Boulder City, NV Urban Cluster",C,13866,6981,6.066,0.0,35.971031,-114.842409,0.6278129262869484,-2.0043781579719684
m9352,9352,"Bowie, TX Urban Cluster",C,5143,2459,4.042,0.018,33.558499,-97.843269,0.5857062995772245,-1.7076871949644996
m9379,9379,"Bowling Green, KY Urbanized Area",U,78306,32586,45.403,0.246,36.955691,-86.439165,0.6449984852996358,-1.5086480319246445
m9406,9406,"Bowling Green, MO Urban Cluster",C,5356,1493,2.305,0.007,39.346265,-91.203109,0.6867218726122067,-1.5917945401052729
m9433,9433,"Bowling Green, OH Urban Cluster",C,30738,12582,12.299,0.111,41.375434,-83.64958,0.7221375527416075,-1.4599605889103981
m9460,9460,"Box Elder, SD Urban Cluster",C,7885,2873,8.085,0.007,44.127283,-103.075728,0.7701663783093209,-1.7990108324901095
m9487,9487,"Boyne City, MI Urban Cluster",C,3501,2184,2.772,0.022,45.212106,-85.01253,0.7891001114606834,-1.483748553950455
m9514,9514,"Bozeman, MT Urban Cluster",C,43164,19927,19.473,0.048,45.683915,-111.057555,0.7973347319512253,-1.9383199939646911
m9532,9532,"Brackettville, TX Urban Cluster",C,2862,1427,2.747,0.003,29.302599,-100.412224,0.5114268319415979,-1.7525239180500705
m9541,9541,"Bradford, PA--NY Urban Cluster",C,12083,5345,5.3,0.074,41.960586,-78.643348,0.7323503817662373,-1.3725853573916975
m9568,9568,"Brady, TX Urban Cluster",C,5357,2489,2.863,0.009,31.130533,-99.33716,0.5433302987507479,-1.7337605115804104
m9600,9600,"Braidwood--Coal City--Wilmington, IL Urban Cluster",C,22685,9729,15.07,0.468,41.268523,-88.242632,0.7202716037850079,-1.5401244690257088
m9622,9622,"Brainerd, MN Urban Cluster",C,19812,8945,17.732,1.451,46.358486,-94.218876,0.8091082169396959,-1.6444296037282646
m9649,9649,"Brandon, SD Urban Cluster",C,8173,3009,3.31,0.004,43.596301,-96.571764,0.7608989941404963,-1.6854952462589292
m9676,9676,"Branson, MO Urban Cluster",C,22645,14038,28.762,0.479,36.634205,-93.248037,0.6393874961005692,-1.6274852666714956
m9703,9703,"Brattleboro, VT--NH Urban Cluster",C,9980,5055,4.738,0.132,42.849384,-72.580458,0.7478628332513779,-1.2667679647054584
m9730,9730,"Brawley, CA Urban Cluster",C,25032,8249,7.929,0.0,32.977979,-115.531854,0.5755743142035471,-2.0164112432333807
m9784,9784,"Brazoria, TX Urban Cluster",C,3908,1602,3.049,0.0,29.058564,-95.585174,0.5071676177014935,-1.668276002391678
m9801,9801,"Breaux Bridge, LA Urban Cluster",C,18465,7171,22.739,0.271,30.277915,-91.881727,0.5284493073889789,-1.6036386585685718
m9811,9811,"Breckenridge, CO Urban Cluster",C,7179,8216,6.477,0.0,39.483115,-106.042404,0.6891103556935608,-1.8507890965300051
m9838,9838,"Breckenridge, TX Urban Cluster",C,5839,2704,3.742,0.004,32.756684,-98.909361,0.5717119878353462,-1.7262940104936713
m9865,9865,"Breese, IL Urban Cluster",C,5800,2436,4.582,0.0,38.5925,-89.532021,0.6735661915759116,-1.562628552414706
m9892,9892,"Bremen, GA Urban Cluster",C,6516,2762,6.815,0.008,33.719956,-85.145977,0.5885242558276171,-1.486077643477364
m9919,9919,"Bremen, IN Urban Cluster",C,4663,1955,2.405,0.004,41.446077,-86.150628,0.7233705056850939,-1.5036121112608174
m9946,9946,"Bremerton, WA Urbanized Area",U,198979,85027,136.487,31.65,47.617754,-122.626184,0.8310865897046998,-2.14023065995639
m9973,9973,"Brenham, TX Urban Cluster",C,15682,6354,8.314,0.019,30.15986,-96.39592,0.526388858940537,-1.6824261894890524
m10000,10000,"Brent, AL Urban Cluster",C,5525,1500,4.824,0.016,32.946488,-87.1526,0.5750246925688016,-1.5210998216736102
m10027,10027,"Brevard, NC Urban Cluster",C,13121,6464,12.035,0.0,35.229587,-82.73134,0.6148722872677916,-1.4439342775868855
m10081,10081,"Brewton, AL Urban Cluster",C,6866,3258,5.903,0.026,31.107036,-87.064824,0.5429201987364068,-1.5195678414693796
m10135,10135,"Bridgeport, TX Urban Cluster",C,5646,1737,3.401,0.0,33.213913,-97.760679,0.5796921393209473,-1.7062457275352776
m10162,10162,"Bridgeport--Stamford, CT--NY Urbanized Area",U,923311,367499,466.212,11.851,41.135297,-73.534005,0.7179463714357459,-1.2834104994279727
m10189,10189,"Bridgeton, NJ Urban Cluster",C,35022,10631,17.785,0.463,39.441365,-75.223477,0.6883816807308533,-1.3128973484482265
m10198,10198,"Bridgeville, DE Urban Cluster",C,3343,1389,3.149,0.0,38.727397,-75.589709,0.6759205883769746,-1.3192893026743904
m10297,10297,"Brillion, WI Urban Cluster",C,2968,1256,1.573,0.008,44.175097,-88.066117,0.7710008900378695,-1.5370437010965512
m10324,10324,"Brinkley, AR Urban Cluster",C,2528,1251,2.045,0.008,34.891433,-91.193628,0.6089703865890027,-1.5916290654388916
m10351,10351,"Bristol--Bristol, TN--VA Urbanized Area",U,69501,32924,63.889,0.105,36.604532,-82.152878,0.638869604551625,-1.433838211089214
m10378,10378,"Bristow, OK Urban Cluster",C,4110,2000,1.843,0.004,35.828547,-96.392234,0.6253261113555367,-1.6823618566528238
m10405,10405,"Broadway, VA Urban Cluster",C,6228,2740,3.609,0.035,38.61927,-78.789794,0.6740334162166706,-1.3751413222680733
m10418,10418,"Brockport, NY Urban Cluster",C,20255,7643,11.864,0.088,43.225484,-77.926485,0.7544270165681286,-1.3600737377559733
m10426,10426,"Brockway, PA Urban Cluster",C,2856,1348,2.401,0.038,41.245655,-78.775677,0.7198724818916618,-1.3748949341375691
m10459,10459,"Brodhead, WI Urban Cluster",C,3506,1516,1.799,0.0,42.613738,-89.378975,0.7437500346822232,-1.5599573958076987
m10513,10513,"Broken Bow, NE Urban Cluster",C,3537,1723,1.904,0.0,41.40544,-99.640174,0.7226612562369609,-1.7390491035600482
m10540,10540,"Broken Bow, OK Urban Cluster",C,4253,1836,3.425,0.019,34.024203,-94.743486,0.5938343677169322,-1.6535857755171524
m10567,10567,"Brookfield, MO Urban Cluster",C,4281,2153,2.937,0.007,39.783508,-93.076913,0.6943532025935042,-1.624498589442313
m10594,10594,"Brookhaven, MS Urban Cluster",C,10635,4697,8.826,0.003,31.589888,-90.44074,0.5513475559362464,-1.5784886909401363
m10621,10621,"Brookings, OR Urban Cluster",C,10915,5757,7.018,0.127,42.052622,-124.268979,0.7339567129966028,-2.1689028416416907
m10648,10648,"Brookings, SD Urban Cluster",C,22482,8864,9.483,0.0,44.300494,-96.78452,0.7731894805599928,-1.6892085389623022
m10675,10675,"Brooklyn, MI Urban Cluster",C,2773,1488,2.963,0.05,42.102068,-84.27483,0.7348197084985439,-1.4708732600584928
m10702,10702,"Brookshire, TX Urban Cluster",C,4486,1565,2.58,0.0,29.782343,-95.955077,0.5197999443082856,-1.6747320276546829
m10810,10810,"Brookville, PA Urban Cluster",C,4542,2143,3.76,0.076,41.162035,-79.081363,0.7184130375711442,-1.3802301613148205
m10837,10837,"Brownfield, TX Urban Cluster",C,9530,3503,4.51,0.023,33.17654,-102.274007,0.5790398574195995,-1.785018161357728
m10864,10864,"Browning, MT Urban Cluster",C,4624,1460,1.876,0.028,48.555663,-113.019428,0.8474561898387873,-1.97256113732067
m10891,10891,"Browns Mills--Fort Dix, NJ Urban Cluster",C,37985,12833,28.708,0.583,40.020284,-74.590178,0.6984857233832062,-1.3018441957486389
m10918,10918,"Brownstown, IN Urban Cluster",C,3149,1305,1.54,0.003,38.878859,-86.046346,0.67856409896863,-1.5017920470102526
m10945,10945,"Brownsville, TN Urban Cluster",C,9879,4323,5.771,0.0,35.596445,-89.261058,0.6212751672550729,-1.5578993559136247
m10972,10972,"Brownsville, TX Urbanized Area",U,217585,66404,81.528,3.339,25.966448,-97.473579,0.45320001264789656,-1.7012348872528018
m10999,10999,"Brownwood, TX Urban Cluster",C,22711,9690,16.98,0.0,31.709761,-98.97287,0.5534397344704896,-1.7274024516483202
m11026,11026,"Brunswick, GA Urbanized Area",U,51024,22277,43.381,0.801,31.214895,-81.504818,0.5448026934143153,-1.4225274303387396
m11040,11040,"Brunswick, ME Urban Cluster",C,29159,14192,24.566,0.691,43.911044,-69.927941,0.7663922957881009,-1.220472809590336
m11053,11053,"Brunswick, MD--VA Urban Cluster",C,8495,3319,6.697,0.085,39.311176,-77.628603,0.6861094540309745,-1.3548747160735475
m11080,11080,"Brush, CO Urban Cluster",C,5816,2450,2.438,0.0,40.259106,-103.630839,0.7026539536094043,-1.808699347154148
m11107,11107,"Bryan, OH Urban Cluster",C,9762,4630,6.295,0.022,41.473955,-84.550698,0.7238570685739647,-1.4756880649593844
m11134,11134,"Buckeye, AZ Urban Cluster",C,19424,7172,10.465,0.0,33.390473,-112.583155,0.5827736926482686,-1.9649467370331166
m11161,11161,"Buckhannon, WV Urban Cluster",C,8731,3731,6.183,0.0,38.985413,-80.225747,0.6804238170998002,-1.4002034300219632
m11175,11175,"Buckhead (Bryan County), GA Urban Cluster",C,5168,1783,7.75,0.066,31.861898,-81.260321,0.5560950260345963,-1.4182601526774912
m11188,11188,"Buckner, MO Urban Cluster",C,3034,1225,2.367,0.003,39.125522,-94.2005,0.6828691804614767,-1.6441088820249183
m11215,11215,"Bucyrus, OH Urban Cluster",C,12401,5986,6.165,0.0,40.803953,-82.972048,0.7121633276790178,-1.448135424722776
m11242,11242,"Buena Vista, CO Urban Cluster",C,4483,1699,3.85,0.034,38.831749,-106.133048,0.6777418743580156,-1.8523711327771828
m11269,11269,"Buena Vista, VA Urban Cluster",C,6536,2889,3.417,0.013,37.735113,-79.35429,0.658601965462115,-1.384993636082411
m11296,11296,"Buffalo, MN Urban Cluster",C,15972,6226,8.359,1.203,45.181514,-93.864247,0.7885661803359133,-1.63824016005521
m11323,11323,"Buffalo, MO Urban Cluster",C,3031,1481,2.127,0.001,37.645096,-93.098472,0.6570308724293473,-1.6248748649757503
m11350,11350,"Buffalo, NY Urbanized Area",U,935906,436020,379.93,5.558,42.92493,-78.823675,0.7491813596880896,-1.3757326572719413
m11377,11377,"Buffalo, WY Urban Cluster",C,4368,2108,2.375,0.0,44.350191,-106.701248,0.7740568568383566,-1.8622880935870147
m11404,11404,"Buhl, ID Urban Cluster",C,4138,1772,1.563,0.0,42.598121,-114.760937,0.7434774666129395,-2.0029562033237838
m11415,11415,"Buies Creek, NC Urban Cluster",C,5628,1801,3.712,0.012,35.409681,-78.712118,0.6180155205308782,-1.373785620318294
m11431,11431,"Bullhead City, AZ--NV Urban Cluster",C,48656,27288,29.061,0.01,35.05296,-114.589825,0.6117895645698715,-1.9999697355341115
m11512,11512,"Bunkie, LA Urban Cluster",C,4090,1876,2.214,0.001,30.953684,-92.185724,0.5402437014218885,-1.608944407134757
m11539,11539,"Buras, LA Urban Cluster",C,3767,1766,9.028,0.166,29.342422,-89.500918,0.5121218744096195,-1.5620857026574582
m11566,11566,"Burgaw, NC Urban Cluster",C,3456,1258,2.474,0.0,34.550156,-77.930332,0.603013979277674,-1.3601408805722977
m11575,11575,"Burgettstown, PA Urban Cluster",C,3380,1621,2.443,0.0,40.379862,-80.390416,0.7047615434009425,-1.4030774462479298
m11593,11593,"Burkburnett, TX Urban Cluster",C,10002,4366,5.225,0.0,34.082697,-98.56948,0.5948552806095938,-1.7203619679787001
m11620,11620,"Burley, ID Urban Cluster",C,15977,6005,9.683,0.917,42.548475,-113.776279,0.7426109804524943,-1.9857706792176815
m11647,11647,"Burlington, CO Urban Cluster",C,4243,1480,1.482,0.0,39.303816,-102.265989,0.6859809977980276,-1.7848782208583034
m11674,11674,"Burlington, IA--IL Urban Cluster",C,29569,13848,15.538,0.05,40.813742,-91.132613,0.7123341779594954,-1.5905641527957872
m11701,11701,"Burlington, KS Urban Cluster",C,2503,1230,1.602,0.001,38.19593,-95.744965,0.6666447393612777,-1.6710648814567324
m11728,11728,"Burlington, NC Urbanized Area",U,119911,53132,90.429,0.795,36.078968,-79.408365,0.6296967823216736,-1.3859374228754269
m11755,11755,"Burlington, VT Urbanized Area",U,108740,45774,61.756,1.053,44.471732,-73.151442,0.7761781474645228,-1.276733515481666
m11782,11782,"Burlington, WI Urban Cluster",C,23534,10241,13.138,1.2,42.704713,-88.244098,0.7453378479692252,-1.540150055552543
m11809,11809,"Burnet, TX Urban Cluster",C,5428,1974,3.886,0.011,30.747376,-98.239011,0.536642947548684,-1.7145941958529272
m11836,11836,"Burney, CA Urban Cluster",C,3171,1455,2.025,0.017,40.883756,-121.665539,0.7135561527819868,-2.1234642417635694
m11863,11863,"Burns, OR Urban Cluster",C,4131,2111,2.514,0.0,43.582651,-119.055231,0.7606607566975991,-2.077905772672421
m11872,11872,"Burnt Store Marina, FL Urban Cluster",C,3061,2791,3.147,0.303,26.773825,-82.043161,0.46729139960277083,-1.4319232881938035
m11890,11890,"Bushnell, FL Urban Cluster",C,3500,2263,2.718,0.002,28.667657,-82.116817,0.5003450034824,-1.4332088279076525
m11917,11917,"Bushnell, IL Urban Cluster",C,3045,1375,1.471,0.008,40.552775,-90.507321,0.7077794445704434,-1.579650748609407
m11944,11944,"Butler, IN Urban Cluster",C,2651,1072,1.226,0.0,41.42924,-84.872624,0.7230766445989356,-1.4813067336071597
m11971,11971,"Butler, MO Urban Cluster",C,3875,1884,2.14,0.006,38.256012,-94.339322,0.6676933680824609,-1.6465317829991217
m11998,11998,"Butler, PA Urban Cluster",C,40352,18974,32.869,0.127,40.863329,-79.924451,0.7131996343756819,-1.3949448227988746
m12025,12025,"Butner, NC Urban Cluster",C,16975,4461,17.176,0.033,36.129731,-78.745092,0.6305827638098633,-1.3743611251858465
m12052,12052,"Butte-Silver Bow, MT Urban Cluster",C,30287,14923,16.494,0.0,45.983538,-112.516416,0.8025641398159283,-1.9637819217436283
m12079,12079,"Byron, IL Urban Cluster",C,7057,2755,5.197,0.055,42.141192,-89.264195,0.7355025511150942,-1.5579541068922598
m12106,12106,"Byron, MN Urban Cluster",C,4864,1869,2.365,0.0,44.038026,-92.643895,0.7686085497788684,-1.616940999621912
m12120,12120,"Cache, OK Urban Cluster",C,2600,1060,1.539,0.0,34.63018,-98.629863,0.6044106615582899,-1.721415850140932
m12133,12133,"Cactus, TX Urban Cluster",C,3292,952,0.735,0.0,36.039681,-101.999794,0.6290110948184425,-1.780232241655957
m12160,12160,"Cadillac, MI Urban Cluster",C,11690,5829,8.74,1.839,44.248965,-85.415153,0.7722901298497327,-1.4907756509447123
m12187,12187,"Cadiz, KY Urban Cluster",C,2960,1386,2.188,0.005,36.864616,-87.820443,0.6434089266833818,-1.5327558809100066
m12214,12214,"Cadiz, OH Urban Cluster",C,2521,1220,1.726,0.0,40.265314,-80.988254,0.702762303649368,-1.4135116877414675
m12241,12241,"Cairo, GA Urban Cluster",C,9414,3896,6.483,0.061,30.876091,-84.205905,0.5388894480953884,-1.4696702918715558
m12268,12268,"Cairo, IL Urban Cluster",C,2833,1603,1.892,0.0,37.014285,-89.180289,0.6460211435215493,-1.5564896709300815
m12295,12295,"Calais, ME Urban Cluster",C,2504,1316,1.703,0.0,45.1789,-67.275222,0.7885205574292662,-1.1741741289101246
m12322,12322,"Caldwell, OH Urban Cluster",C,5488,1413,2.81,0.019,39.741273,-81.535625,0.6936160627839244,-1.4230651139214014
m12349,12349,"Caldwell, TX Urban Cluster",C,4012,1603,3.042,0.019,30.531315,-96.700624,0.5328719717135325,-1.6877442775330491
m12376,12376,"Caledonia, MN Urban Cluster",C,2749,1297,1.723,0.0,43.63279,-91.493598,0.7615358473312566,-1.596864529596099
m12457,12457,"Calhoun, GA Urban Cluster",C,31493,12644,33.071,0.185,34.480071,-84.920551,0.6017907652714137,-1.4821432175577631
m12511,12511,"California, MO Urban Cluster",C,4181,1871,2.261,0.013,38.630336,-92.568251,0.6742265543516962,-1.6156207627625334
m12565,12565,"California City, CA Urban Cluster",C,10908,4899,7.512,0.063,35.122358,-117.966018,0.6130007881641706,-2.058895419566896
m12592,12592,"Calipatria, CA Urban Cluster",C,3538,1116,1.028,0.0,33.124883,-115.512646,0.5781382726878967,-2.0160760003906577
m12646,12646,"Calistoga, CA Urban Cluster",C,5155,2319,2.595,0.018,38.581408,-122.582696,0.6733725996552805,-2.139471651171283
m12700,12700,"Camano, WA Urban Cluster",C,6157,3307,6.635,0.05,48.159122,-122.472428,0.8405352437696366,-2.1375471115116937
m12713,12713,"Camano North, WA Urban Cluster",C,2529,1610,1.992,0.0,48.213081,-122.528459,0.8414770059807203,-2.1385250369448787
m12754,12754,"Camarillo, CA Urbanized Area",U,71772,28232,21.996,0.015,34.231343,-119.034717,0.5974496427295133,-2.077547735829667
m12781,12781,"Cambria, CA Urban Cluster",C,5865,3971,3.56,0.0,35.559226,-121.091512,0.6206255731607733,-2.1134455806182237
m12808,12808,"Cambridge, MD Urban Cluster",C,14255,7188,8.663,0.133,38.562477,-76.077314,0.6730421913745854,-1.3277996153735774
m12835,12835,"Cambridge, MN Urban Cluster",C,14270,5817,9.91,0.497,45.535536,-93.23444,0.7947450298604086,-1.627247954253102
m12862,12862,"Cambridge, OH Urban Cluster",C,15232,7484,9.846,0.004,40.017438,-81.578297,0.6984360513126946,-1.4238098808198127
m12872,12872,"Cambridge, WI Urban Cluster",C,2577,1412,1.749,0.577,43.002181,-89.002427,0.7505296439885476,-1.553385393415899
m12889,12889,"Cambridge City, IN Urban Cluster",C,3805,1768,3.085,0.16,39.807266,-85.151127,0.6947678579171931,-1.4861675279338415
m12890,12890,"Cambridge Springs, PA Urban Cluster",C,2602,752,0.808,0.0,41.801559,-80.059681,0.7295748370166684,-1.3973050315463462
m12916,12916,"Camden, AR Urban Cluster",C,11401,5653,11.861,0.009,33.559932,-92.84588,0.5857313101454057,-1.620466302911553
m12943,12943,"Camden, ME Urban Cluster",C,3968,2520,2.978,0.002,44.206567,-69.081419,0.7715501451534721,-1.2056982134997687
m12970,12970,"Camden, SC Urban Cluster",C,13546,6478,15.718,0.497,34.259627,-80.595476,0.5979432916551474,-1.4066564184120693
m12997,12997,"Camden, TN Urban Cluster",C,3552,1724,4.04,0.0,36.059683,-88.103642,0.6293601955754264,-1.5376986358983618
m13024,13024,"Camdenton, MO Urban Cluster",C,3632,1646,2.926,0.0,38.005994,-92.75846,0.6633297307932098,-1.6189405360794593
m13051,13051,"Cameron, MO Urban Cluster",C,9782,2850,4.049,0.032,39.742652,-94.238676,0.6936401308743094,-1.6447751789201597
m13078,13078,"Cameron, TX Urban Cluster",C,5389,2290,3.089,0.0,30.858592,-96.978421,0.538584032929582,-1.6925927498352116
m13132,13132,"Camilla, GA Urban Cluster",C,6939,2081,5.349,0.0,31.215018,-84.188456,0.5448048401692953,-1.4693657493703753
m13159,13159,"Campbellsville, KY Urban Cluster",C,11719,5258,7.743,0.116,37.352554,-85.346495,0.6519250513289779,-1.489577342786878
m13170,13170,"Camp Verde, AZ Urban Cluster",C,5305,2434,6.241,0.0,34.589339,-111.874501,0.6036978516384829,-1.9525783914756887
m13177,13177,"Canadian, TX Urban Cluster",C,2781,1134,1.492,0.0,35.909872,-100.383689,0.6267455003697211,-1.7520258883480142
m13221,13221,"Canby, OR Urban Cluster",C,17119,6387,5.001,0.021,45.265185,-122.68825,0.7900265147743496,-2.141313916009933
m13240,13240,"Cannon Falls, MN Urban Cluster",C,3931,1809,2.716,0.033,44.509501,-92.902051,0.7768373408697087,-1.6214466718056908
m13267,13267,"Caï¿½on City, CO Urban Cluster",C,27139,10533,19.403,0.012,38.438739,-105.212346,0.6708825558647526,-1.8363018514474856
m13294,13294,"Canton, IL Urban Cluster",C,14818,6008,6.452,0.0,40.564329,-90.032578,0.7079810999122189,-1.571364920158611
m13321,13321,"Canton, MS Urban Cluster",C,15321,5541,10.673,0.129,32.616925,-90.022124,0.5692727331260515,-1.571182463438608
m13348,13348,"Canton, NY Urban Cluster",C,6489,1828,3.257,0.09,44.59639,-75.163596,0.778353840003474,-1.3118522278388396
m13375,13375,"Canton, OH Urbanized Area",U,279245,125638,166.448,1.175,40.827886,-81.430106,0.7125810373288977,-1.4212234599479896
m13402,13402,"Canton, SD Urban Cluster",C,2679,1204,1.151,0.0,43.302592,-96.588259,0.7557728050477563,-1.6857831383190456
m13429,13429,"Canton, TX Urban Cluster",C,3563,1536,4.405,0.019,32.549287,-95.868917,0.5680922273265876,-1.6732282519711643
m13456,13456,"Canyon, TX Urban Cluster",C,13440,5655,6.155,0.005,34.983868,-101.918783,0.6105836816830836,-1.7788183329756238
m13483,13483,"Canyon Lake, TX Urban Cluster",C,5277,3244,6.535,0.008,29.867717,-98.275628,0.5212900017038832,-1.7152332830651298
m13510,13510,"Cape Coral, FL Urbanized Area",U,530290,307598,330.31,41.257,26.602515,-81.842109,0.46430147606117933,-1.428414268826084
m13537,13537,"Cape Girardeau, MO--IL Urbanized Area",U,52900,23192,35.031,0.066,37.333123,-89.58096,0.651585916402023,-1.5634826990973396
m13550,13550,"Captain Cook, HI Urban Cluster",C,4175,1640,4.181,0.0,19.48514,-155.904804,0.3400798482120479,-2.7210521494764257
m13564,13564,"Carbondale, CO Urban Cluster",C,7159,2665,2.116,0.0,39.39731,-107.215665,0.6876127759288871,-1.871266363965246
m13591,13591,"Carbondale, IL Urbanized Area",U,67821,32286,48.675,1.0,37.748873,-89.065603,0.6588421227671895,-1.5544880226241389
m13618,13618,"Carey, OH Urban Cluster",C,3575,1604,1.437,0.0,40.950435,-83.384422,0.7147199208739241,-1.455332708772395
m13645,13645,"Caribou, ME Urban Cluster",C,3974,2002,2.451,0.018,46.856003,-68.00856,0.8177915266743405,-1.1869732915401148
m13699,13699,"Carlinville, IL Urban Cluster",C,5953,2641,2.839,0.0,39.279167,-89.88026,0.6855507915907035,-1.5687064695485586
m13753,13753,"Carlisle, IA Urban Cluster",C,3968,1584,1.495,0.017,41.500208,-93.492609,0.724315269862491,-1.6317538533296834
m13807,13807,"Carlsbad, NM Urban Cluster",C,29839,12727,21.923,0.273,32.399376,-104.234137,0.5654757867916302,-1.819228883624845
m13821,13821,"Carlton, OR Urban Cluster",C,3178,1196,3.779,0.0,45.317017,-123.173609,0.7909311538322431,-2.14978502861412
m13834,13834,"Carlyle, IL Urban Cluster",C,4301,1896,2.539,0.0,38.611183,-89.387204,0.6738922714400616,-1.5601010189518452
m13850,13850,"Carmel Valley Village, CA Urban Cluster",C,3122,1507,2.903,0.045,36.468948,-121.730643,0.6365032173386009,-2.124600520919788
m13861,13861,"Carmi, IL Urban Cluster",C,5568,2704,2.479,0.006,38.08674,-88.171043,0.6647390143510251,-1.5388750052674987
m13915,13915,"Caro, MI Urban Cluster",C,5113,2413,3.527,0.001,43.493157,-83.394155,0.7590987917368193,-1.4555025816684917
m13969,13969,"Carrizo Springs, TX Urban Cluster",C,6050,2345,3.899,0.016,28.523704,-99.852371,0.49783254966427665,-1.7427526398729027
m13996,13996,"Carroll, IA Urban Cluster",C,9984,4648,4.599,0.0,42.070722,-94.863917,0.7342726175912139,-1.6556876929886215
m14023,14023,"Carrollton, GA Urban Cluster",C,42872,17154,45.102,1.002,33.591427,-85.043487,0.5862810015933213,-1.4842888555269949
m14050,14050,"Carrollton, KY Urban Cluster",C,5165,2232,3.619,0.08,38.686228,-85.143056,0.6752020537772209,-1.4860266624099132
m14077,14077,"Carrollton, MO Urban Cluster",C,3296,1659,2.17,0.0,39.363063,-93.493303,0.6870150530199567,-1.631765965914692
m14104,14104,"Carrollton, OH Urban Cluster",C,3498,1588,2.388,0.0,40.579076,-81.090358,0.7082384836170105,-1.415293738720924
m14158,14158,"Carson City, NV Urbanized Area",U,58079,24622,23.087,0.06,39.155541,-119.753121,0.6833931108496331,-2.090086250989164
m14185,14185,"Cartersville, GA Urbanized Area",U,52477,20826,50.601,0.114,34.19247,-84.828245,0.5967711808893855,-1.4805321739384172
m14212,14212,"Carthage, IL Urban Cluster",C,2582,1298,1.624,0.0,40.414538,-91.135021,0.7053667537723641,-1.5906061803241751
m14239,14239,"Carthage, MS Urban Cluster",C,4478,1518,4.151,0.002,32.745524,-89.536348,0.5715172090908237,-1.5627040728114399
m14266,14266,"Carthage, MO Urban Cluster",C,15496,6223,9.074,0.0,37.166692,-94.323934,0.6486811474746362,-1.6462632117338247
m14320,14320,"Carthage, TN Urban Cluster",C,3282,1506,2.897,0.125,36.24688,-85.950403,0.6326273995752822,-1.5001175257660118
m14347,14347,"Carthage, TX Urban Cluster",C,6492,2783,6.953,0.0,32.157973,-94.342948,0.5612625096174384,-1.6465950686377995
m14374,14374,"Caruthersville, MO Urban Cluster",C,5786,2536,2.854,0.0,36.185441,-89.665252,0.6315550867361494,-1.5649538720304303
m14401,14401,"Casa Grande, AZ Urbanized Area",U,51331,23555,22.266,0.0,32.908121,-111.739572,0.5743550620946889,-1.9502234361692652
m14428,14428,"Casey, IL Urban Cluster",C,2834,1385,1.713,0.0,39.30153,-87.987465,0.685941099571327,-1.5356709647332725
m14455,14455,"Cashmere, WA Urban Cluster",C,4725,1851,2.825,0.023,47.519854,-120.491318,0.8293779123669975,-2.102970219167509
m14482,14482,"Casper, WY Urbanized Area",U,64548,28679,30.342,0.192,42.836277,-106.320225,0.7476340729463191,-1.855637987711188
m14536,14536,"Cassville, MO Urban Cluster",C,4084,1759,4.141,0.005,36.688323,-93.870102,0.6403320333851635,-1.638342349082914
m14556,14556,"Castle Dale, UT Urban Cluster",C,2893,1162,2.626,0.0,39.221679,-111.033525,0.684547436710317,-1.9379005913454368
m14570,14570,"Castle Rock, WA Urban Cluster",C,2514,1103,2.382,0.04,46.271855,-122.903918,0.8075962207554008,-2.1450780327011243
m14590,14590,"Castroville, TX Urban Cluster",C,4040,1635,3.814,0.022,29.344409,-98.882152,0.5121565541018567,-1.725819123857496
m14644,14644,"Catskill, NY Urban Cluster",C,6453,3179,4.009,0.044,42.212825,-73.869612,0.7367527828181754,-1.2892679465707135
m14671,14671,"Cazenovia, NY Urban Cluster",C,3114,1188,1.578,0.0,42.936974,-75.855216,0.7493915671431998,-1.3239232740114828
m14698,14698,"Cedar City, UT Urban Cluster",C,33200,11995,16.769,0.0,37.694517,-113.100443,0.6578934315989754,-1.973975115814173
m14705,14705,"Cedaredge, CO Urban Cluster",C,3550,1734,3.232,0.0,38.858356,-107.953216,0.6782062541120937,-1.8841390573166228
m14752,14752,"Cedar Rapids, IA Urbanized Area",U,177844,79099,83.451,0.763,41.998597,-91.663308,0.7330137988682128,-1.5998265278696586
m14779,14779,"Cedar Springs, MI Urban Cluster",C,3579,1326,1.917,0.066,43.219408,-85.553023,0.7543209703627775,-1.4931819363844367
m14806,14806,"Cedartown, GA Urban Cluster",C,12502,4965,8.652,0.029,34.010658,-85.250283,0.5935979628697496,-1.4878981266069489
m14833,14833,"Cedarville, OH Urban Cluster",C,4041,769,1.045,0.035,39.748424,-83.812177,0.6937408712787345,-1.4627984419142637
m14860,14860,"Celina, OH Urban Cluster",C,11259,5304,4.541,0.039,40.553648,-84.564783,0.7077946812948134,-1.475933894584528
m14887,14887,"Center, TX Urban Cluster",C,5234,2157,5.81,0.0,31.792988,-94.179967,0.554892319647047,-1.6437505135696067
m14914,14914,"Centerville, IA Urban Cluster",C,5380,2802,3.353,0.0,40.730632,-92.870897,0.710883634818163,-1.6209029319305241
m14968,14968,"Central City, NE Urban Cluster",C,2821,1337,1.686,0.0,41.114711,-98.003415,0.7175870779559304,-1.7104822699483984
m14995,14995,"Central City--Greenville, KY Urban Cluster",C,9943,4570,7.772,0.016,37.201551,-87.170819,0.649289551798589,-1.5214178032100307
m15022,15022,"Centralia, IL Urban Cluster",C,17296,8357,11.795,0.065,38.517291,-89.132952,0.6722535468987793,-1.5556634844220647
m15049,15049,"Centralia, MO Urban Cluster",C,3813,1669,1.827,0.0,39.208964,-92.135508,0.6843255180959259,-1.6080679725975757
m15076,15076,"Centralia, WA Urban Cluster",C,39517,16448,31.573,0.288,46.729136,-122.982797,0.815577279812213,-2.1464547309618047
m15083,15083,"Centre, AL Urban Cluster",C,3707,1944,10.201,2.385,34.179499,-85.656496,0.5965447942321093,-1.4949878809213528
m15090,15090,"Centreville, MD Urban Cluster",C,4285,1694,2.412,0.0,39.04257,-76.064135,0.6814213949403625,-1.3275695984314568
m15103,15103,"Century, FL--AL Urban Cluster",C,3321,775,2.864,0.043,30.968076,-87.259986,0.5404948892078354,-1.5229740609441567
m15130,15130,"Chadron, NE Urban Cluster",C,5515,2380,1.908,0.0,42.828505,-103.004278,0.747498425956854,-1.7977637947395597
m15157,15157,"Chaffee, MO Urban Cluster",C,2973,1342,1.305,0.002,37.18118,-89.657848,0.6489340107766651,-1.5648246478526129
m15184,15184,"Chambersburg, PA Urbanized Area",U,50887,22244,37.369,0.018,39.935103,-77.645483,0.696999034473065,-1.3551693276512844
m15211,15211,"Champaign, IL Urbanized Area",U,145361,63984,46.899,0.145,40.098548,-88.24774,0.6998516878689872,-1.5402136204439005
m15238,15238,"Chandler, OK Urban Cluster",C,2704,1226,2.178,0.012,35.702864,-96.878862,0.6231325291917528,-1.6908551174852187
m15265,15265,"Chanute, KS Urban Cluster",C,9059,4141,5.321,0.011,37.676018,-95.459986,0.657570563140649,-1.6660910596076917
m15292,15292,"Chaparral, NM Urban Cluster",C,12328,3854,10.716,0.0,32.02465,-106.378856,0.5589355842988021,-1.856661291704925
m15319,15319,"Chardon, OH Urban Cluster",C,8028,3707,9.0,0.04,41.572344,-81.20909,0.7255742805717095,-1.4173660030484019
m15346,15346,"Chariton, IA Urban Cluster",C,3893,1912,2.303,0.0,41.015351,-93.305626,0.7158529188111488,-1.6284903843344267
m15373,15373,"Charles City, IA Urban Cluster",C,7706,3761,3.93,0.068,43.065283,-92.67785,0.7516309816531412,-1.6175336261694266
m15400,15400,"Charleston, IL Urban Cluster",C,21810,8611,7.333,0.007,39.486341,-88.176077,0.6891666600152303,-1.5389628651420442
m15427,15427,"Charleston, MS Urban Cluster",C,2930,1199,1.923,0.008,34.007653,-90.055166,0.5935455157257271,-1.5717591551300518
m15454,15454,"Charleston, MO Urban Cluster",C,5893,1854,3.665,0.011,36.9073,-89.349156,0.6441539030213032,-1.5594369560780463
m15481,15481,"Charleston, WV Urbanized Area",U,153199,74528,98.213,7.211,38.380422,-81.691011,0.6698647322048671,-1.4257771112329054
m15508,15508,"Charleston--North Charleston, SC Urbanized Area",U,548404,242594,293.349,11.258,32.902255,-80.015543,0.5742526810807668,-1.396534678121101
m15535,15535,"Charlestown, IN Urban Cluster",C,6921,2960,3.494,0.018,38.445711,-85.673162,0.6710042402202017,-1.4952787574944901
m15562,15562,"Charlestown, NH Urban Cluster",C,2815,1251,2.503,0.0,43.250913,-72.417035,0.7548708363436182,-1.2639156952819717
m15589,15589,"Charlestown, RI Urban Cluster",C,2942,2629,4.19,0.044,41.38411,-71.621941,0.7222889775075105,-1.2500386871191203
m15600,15600,"Charles Town--Ranson, WV Urban Cluster",C,21019,8603,18.563,0.03,39.297579,-77.857921,0.6858721416125807,-1.358877070207636
m15616,15616,"Charlevoix, MI Urban Cluster",C,4179,3200,4.529,0.005,45.309,-85.252038,0.7907912307861107,-1.4879287571353215
m15643,15643,"Charlotte, MI Urban Cluster",C,12682,5476,8.915,0.205,42.568394,-84.835291,0.742958632586199,-1.480655149837513
m15670,15670,"Charlotte, NC--SC Urbanized Area",U,1249442,526435,741.492,35.38,35.249654,-80.815826,0.6152225224887893,-1.4105022514188388
m15724,15724,"Charlottesville, VA Urbanized Area",U,92359,39419,34.557,0.325,38.057542,-78.483837,0.6642294131160278,-1.3698013652485488
m15751,15751,"Chase City, VA Urban Cluster",C,2666,1271,1.921,0.0,36.801925,-78.462877,0.642314762322014,-1.369435544237331
m15769,15769,"Chatfield, MN Urban Cluster",C,2604,1116,1.565,0.0,43.847659,-92.185074,0.7652860188417243,-1.608933062494619
m15805,15805,"Chattahoochee, FL Urban Cluster",C,5508,1034,2.565,0.022,30.699064,-84.846679,0.5357997440804605,-1.4808539079327296
m15832,15832,"Chattanooga, TN--GA Urbanized Area",U,381112,170310,300.132,7.673,35.058647,-85.211135,0.6118888214444325,-1.4872148651113783
m15859,15859,"Cheboygan, MI Urban Cluster",C,4517,2222,3.482,0.074,45.639155,-84.476836,0.7965535225780327,-1.4743989298672766
m15886,15886,"Checotah, OK Urban Cluster",C,2572,1193,1.258,0.0,35.470179,-95.527683,0.6190714098217497,-1.6672725951514142
m15913,15913,"Chelan, WA Urban Cluster",C,5704,3449,4.878,0.084,47.832792,-120.006138,0.8348397108216035,-2.094502230702683
m15940,15940,"Chelsea, MI Urban Cluster",C,5329,2588,4.211,0.051,42.311138,-84.01704,0.7384686683656886,-1.4663739757797765
m15967,15967,"Cheney, WA Urban Cluster",C,10569,4172,3.083,0.0,47.490567,-117.583303,0.8288667577889658,-2.052215782720126
m15994,15994,"Cheraw, SC Urban Cluster",C,8160,3704,6.296,0.043,34.692689,-79.914,0.6055016494204191,-1.3947624184387486
m16021,16021,"Cherokee, IA Urban Cluster",C,4662,2294,1.832,0.0,42.754457,-95.551834,0.7462060445523373,-1.6676941096190634
m16048,16048,"Cherokee Village, AR Urban Cluster",C,3443,2177,6.735,0.559,36.294171,-91.535305,0.6334527832318428,-1.5975924540672282
m16075,16075,"Cherryville, NC Urban Cluster",C,6340,2873,5.839,0.012,35.382722,-81.381857,0.6175449972178331,-1.4203813560371947
m16102,16102,"Chesapeake Beach, MD Urban Cluster",C,23700,9229,25.424,0.16,38.73071,-76.646639,0.675978411135093,-1.3377362111374937
m16140,16140,"Chesnee, SC Urban Cluster",C,3003,1380,4.151,0.011,35.141589,-81.859807,0.6133364324326216,-1.4287231571971017
m16156,16156,"Chester, IL Urban Cluster",C,8450,2127,4.968,0.012,37.917056,-89.824157,0.6617774698630711,-1.5677272874783121
m16171,16171,"Chester, NY Urban Cluster",C,5691,2233,3.614,0.001,41.362707,-74.278079,0.7219154246877062,-1.296397040606457
m16183,16183,"Chester, SC Urban Cluster",C,9351,4233,6.919,0.005,34.707497,-81.213333,0.6057600977760542,-1.417440057368564
m16210,16210,"Chestertown, MD Urban Cluster",C,7153,3237,3.944,0.28,39.214499,-76.063775,0.684422122070024,-1.32756331524615
m16223,16223,"Chetek, WI Urban Cluster",C,2830,1618,2.843,0.181,45.312024,-91.646524,0.7908440095426911,-1.5995335918080038
m16237,16237,"Cheyenne, WY Urbanized Area",U,73588,33018,35.132,0.109,41.14109,-104.806118,0.7180474783593138,-1.8292118353336944
m16264,16264,"Chicago, IL--IN Urbanized Area",U,8608208,3459257,2442.747,40.792,41.827126,-87.895427,0.7300210653465257,-1.534064598596322
m16291,16291,"Chickasha, OK Urban Cluster",C,15739,7224,10.015,0.037,35.032213,-97.952197,0.6114274611099603,-1.7095883472121118
m16318,16318,"Chico, CA Urbanized Area",U,98176,42052,34.41,0.053,39.750248,-121.843748,0.6937727060842909,-2.1265745755702556
m16372,16372,"Childress, TX Urban Cluster",C,4707,2295,2.707,0.0,34.427361,-100.213205,0.6008708022226875,-1.749050381226044
m16426,16426,"Chillicothe, MO Urban Cluster",C,9633,4175,7.547,0.01,39.796065,-93.551176,0.6945723635876772,-1.6327760403126987
m16453,16453,"Chillicothe, OH Urban Cluster",C,32263,12763,17.253,0.146,39.345962,-83.005219,0.686716584264573,-1.448714367888955
m16480,16480,"Chilton, WI Urban Cluster",C,3590,1669,1.854,0.01,44.029033,-88.156324,0.7684515923192364,-1.5386181102548975
m16534,16534,"Chinle, AZ Urban Cluster",C,3407,1090,3.384,0.014,36.155386,-109.582207,0.6310305280294626,-1.9125703137519776
m16561,16561,"Chino Valley, AZ Urban Cluster",C,10783,4810,12.425,0.0,34.763808,-112.467862,0.6067429101311449,-1.962934494578615
m16588,16588,"Chipley, FL Urban Cluster",C,3846,1752,3.748,0.0,30.777037,-85.539973,0.5371606296581181,-1.4929541709170515
m16615,16615,"Chisholm, MN Urban Cluster",C,4622,2344,1.588,0.027,47.487825,-92.88315,0.8288189008608763,-1.621116787123771
m16642,16642,"Chittenango, NY Urban Cluster",C,5083,2084,2.12,0.002,43.048504,-75.878615,0.751338132857949,-1.324331663603157
m16696,16696,"Chowchilla, CA Urban Cluster",C,11843,4248,4.563,0.0,37.11481,-120.24802,0.6477756357521166,-2.0987238680039915
m16777,16777,"Christopher, IL Urban Cluster",C,3610,1731,2.863,0.008,37.976686,-89.061257,0.6628182096960353,-1.5544121706148473
m16831,16831,"Church Point, LA Urban Cluster",C,4588,1937,2.666,0.0,30.404173,-92.216171,0.5306529251959619,-1.609475807532112
m16858,16858,"Churchville, NY Urban Cluster",C,3134,1315,1.907,0.005,43.096282,-77.911448,0.7521720162679669,-1.359811292596351
m16885,16885,"Cincinnati, OH--KY--IN Urbanized Area",U,1624827,711373,787.74,9.557,39.185505,-84.462043,0.6839160813067006,-1.4741407433110287
m16912,16912,"Circleville, OH Urban Cluster",C,14965,6603,7.339,0.12,39.605271,-82.937125,0.6912423800946271,-1.4475259033881018
m16939,16939,"Cisco, TX Urban Cluster",C,3658,1703,2.453,0.0,32.384121,-98.982343,0.5652095368142386,-1.7275677866883614
m17047,17047,"Clanton, AL Urban Cluster",C,5785,2539,6.68,0.018,32.859117,-86.651536,0.5734997809480415,-1.512354605110397
m17074,17074,"Clare, MI Urban Cluster",C,5597,2836,6.188,0.331,43.85023,-84.855992,0.7653308912567932,-1.4810164504459682
m17101,17101,"Claremont, NH Urban Cluster",C,9598,4659,5.247,0.015,43.374025,-72.354033,0.7570195460923336,-1.2628161029466303
m17128,17128,"Claremore, OK Urban Cluster",C,25164,10453,20.813,0.025,36.295445,-95.635401,0.6334750187265132,-1.6691526289150778
m17155,17155,"Clarinda, IA Urban Cluster",C,5415,2113,2.378,0.0,40.739111,-95.038714,0.7110316212854396,-1.65873847616123
m17182,17182,"Clarion, IA Urban Cluster",C,2639,1256,1.446,0.0,42.728561,-93.729411,0.7457540740892408,-1.6358868279049907
m17209,17209,"Clarion, PA Urban Cluster",C,9373,3927,6.66,0.102,41.212332,-79.382285,0.7192908858250198,-1.3854822410065066
m17236,17236,"Clarksburg, WV Urban Cluster",C,43988,20581,38.543,0.102,39.284691,-80.329376,0.6856472035785838,-1.4020120972725123
m17263,17263,"Clarksdale, MS Urban Cluster",C,17783,7254,8.5,0.006,34.196976,-90.57456,0.5968498254254804,-1.5808242905451555
m17290,17290,"Clarksville, AR Urban Cluster",C,7313,3048,6.733,0.053,35.47186,-93.474714,0.6191007488064757,-1.6314415266600388
m17317,17317,"Clarksville, TN--KY Urbanized Area",U,158655,62218,109.567,0.189,36.576771,-87.345582,0.6383850836979789,-1.5244679929706937
m17344,17344,"Clarksville, TX Urban Cluster",C,3121,1597,2.798,0.0,33.611534,-95.056076,0.5866319349460197,-1.6590415002259615
m17371,17371,"Claxton, GA Urban Cluster",C,4259,1758,3.163,0.035,32.160363,-81.917014,0.5613042229865611,-1.42972160770229
m17398,17398,"Clay Center, KS Urban Cluster",C,4307,2146,2.165,0.0,39.37998,-97.124005,0.6873103103695166,-1.6951336699734352
m17420,17420,"Clayton, GA Urban Cluster",C,3372,1624,3.901,0.003,34.889025,-83.396521,0.6089283590606146,-1.455543876158594
m17452,17452,"Clearfield, PA Urban Cluster",C,10903,5346,5.626,0.173,41.014806,-78.4388,0.7158434067667253,-1.369015321313328
m17479,17479,"Clearlake, CA Urban Cluster",C,15944,8553,7.28,0.004,38.948609,-122.627477,0.679781466121896,-2.1402532270636185
m17506,17506,"Clear Lake, IA Urban Cluster",C,7944,5140,6.75,0.017,43.141886,-93.375489,0.7529679562200463,-1.6297097237097475
m17514,17514,"Clearlake Riviera, CA Urban Cluster",C,2806,1601,3.079,0.002,38.954606,-122.735748,0.6798861335171382,-2.1421429124980453
m17524,17524,"Clearwood, WA Urban Cluster",C,2611,1085,1.316,0.32,46.823528,-122.473754,0.8172247309997555,-2.137570254577575
m17533,17533,"Cleburne, TX Urban Cluster",C,35122,13562,17.431,0.099,32.339514,-97.397996,0.5644309977948015,-1.6999157150442672
m17560,17560,"Cle Elum, WA Urban Cluster",C,3539,2172,3.01,0.0,47.202248,-120.958191,0.8238346419429082,-2.111118690206172
m17625,17625,"Cleveland, GA Urban Cluster",C,4399,2027,4.825,0.014,34.589593,-83.753646,0.6037022847747829,-1.4617768832497788
m17641,17641,"Cleveland, MS Urban Cluster",C,15722,6392,8.168,0.0,33.743594,-90.723322,0.5889368167562035,-1.583420677247007
m17668,17668,"Cleveland, OH Urbanized Area",U,1780673,832988,771.972,6.486,41.44323,-81.608373,0.7233208161612895,-1.4243348060456424
m17695,17695,"Cleveland, OK Urban Cluster",C,3128,1459,1.553,0.0,36.307052,-96.467305,0.6336775990927923,-1.6836720927755884
m17722,17722,"Cleveland, TN Urbanized Area",U,66777,28182,54.599,0.046,35.175401,-84.851226,0.6139265631593058,-1.4809332680538179
m17749,17749,"Cleveland, TX Urban Cluster",C,9960,3760,8.941,0.0,30.344012,-95.085689,0.5296029176646695,-1.6595583445773543
m17776,17776,"Clewiston, FL Urban Cluster",C,12833,4633,4.653,0.101,26.74849,-80.931175,0.46684922043677807,-1.412515471257722
m17803,17803,"Clifton, AZ Urban Cluster",C,4508,2226,3.365,0.033,33.046865,-109.309401,0.5767766017120758,-1.9078089508327822
m17830,17830,"Clifton, TX Urban Cluster",C,3421,1494,2.172,0.033,31.782235,-97.578621,0.55470464439258,-1.7030682160056818
m17857,17857,"Clifton Forge, VA Urban Cluster",C,5311,2678,3.854,0.048,37.816165,-79.81748,0.6600165897274414,-1.3930778266447237
m17870,17870,"Clifton Springs, NY Urban Cluster",C,6444,2800,4.33,0.0,42.971316,-77.230473,0.7499909481149197,-1.3479260367225827
m17884,17884,"Clinton, IL Urban Cluster",C,8487,3918,4.396,0.004,40.155826,-88.963843,0.7008513775579445,-1.5527119755773096
m17911,17911,"Clinton, IN Urban Cluster",C,6425,3071,3.868,0.013,39.663151,-87.406451,0.6922525766656814,-1.5255303574330903
m17938,17938,"Clinton, IA--IL Urban Cluster",C,32332,14871,16.494,1.334,41.841691,-90.203302,0.7302752725520787,-1.5743446160707861
m17965,17965,"Clinton, MO Urban Cluster",C,8740,4332,5.446,0.072,38.368899,-93.768559,0.6696636179151598,-1.6365700894005615
m17992,17992,"Clinton, NC Urban Cluster",C,9538,4046,7.987,0.02,35.002355,-78.328741,0.6109063407018998,-1.3670944293918756
m18019,18019,"Clinton, OK Urban Cluster",C,8426,3506,3.527,0.0,35.510138,-98.976674,0.6197688259375541,-1.727468843973066
m18046,18046,"Clinton, SC Urban Cluster",C,11176,4663,9.194,0.039,34.457631,-81.871721,0.6013991133872663,-1.4289310957241843
m18100,18100,"Clintonville, WI Urban Cluster",C,4481,2199,2.257,0.194,44.62322,-88.761128,0.7788221118417842,-1.5491739313841293
m18127,18127,"Cloquet, MN Urban Cluster",C,12936,5570,9.415,0.226,46.707427,-92.438093,0.8151983862848975,-1.6133490771147223
m18154,18154,"Clover, SC Urban Cluster",C,6513,2629,5.524,0.011,35.102669,-81.222927,0.6126571502877454,-1.4176075042570002
m18181,18181,"Cloverdale, CA Urban Cluster",C,9166,3652,3.369,0.0,38.803365,-123.015911,0.6772464801031295,-2.14703267929031
m18208,18208,"Clovis, NM Urban Cluster",C,41570,17193,22.571,0.093,34.414716,-103.214782,0.6006501053387728,-1.8014377826281778
m18235,18235,"Clyde, OH Urban Cluster",C,6039,2573,3.254,0.052,41.304327,-82.982461,0.7208965014703919,-1.4483171658577862
m18262,18262,"Clyde, TX Urban Cluster",C,3768,1653,2.84,0.0,32.404031,-99.498759,0.5655570318683106,-1.7365809461983406
m18289,18289,"Coalinga, CA Urban Cluster",C,12702,4398,5.909,0.031,36.146559,-120.352785,0.6308764678163891,-2.100552362194844
m18316,18316,"Coamo, PR Urban Cluster",C,38047,15449,18.5,0.017,18.058704,-66.36982,0.31518384344307004,-1.158371882955983
m18343,18343,"Cobleskill, NY Urban Cluster",C,5618,2248,3.155,0.004,42.682127,-74.49908,0.7449436479043698,-1.300254235706657
m18370,18370,"Cochran, GA Urban Cluster",C,6324,2397,4.613,0.072,32.390238,-83.346608,0.565316298604583,-1.454672729969046
m18383,18383,"Coco--Salinas, PR Urban Cluster",C,22102,10241,7.648,0.019,17.972803,-66.291027,0.31368458816231437,-1.156996685678459
m18397,18397,"Cody, WY Urban Cluster",C,9338,4553,6.348,0.012,44.522764,-109.050402,0.7770688238884006,-1.9032885655234095
m18424,18424,"Coeburn, VA Urban Cluster",C,3179,1419,2.624,0.017,36.942388,-82.472704,0.644766304149243,-1.4394202278226973
m18451,18451,"Coeur d'Alene, ID Urbanized Area",U,98378,42666,47.239,0.645,47.70665,-116.763683,0.8326381175965529,-2.03791071510493
m18478,18478,"Coffeyville, KS--OK Urban Cluster",C,10909,5323,6.775,0.009,37.033824,-95.629703,0.6463621634040965,-1.669053180054299
m18505,18505,"Cokato, MN Urban Cluster",C,4244,1752,2.983,0.241,45.079794,-94.231829,0.7867908314207845,-1.6446556762262758
m18532,18532,"Colby, KS Urban Cluster",C,5463,2465,2.993,0.0,39.386976,-101.047418,0.687432413603986,-1.7636101447389836
m18559,18559,"Colchester, CT Urban Cluster",C,10098,4229,14.601,0.283,41.567345,-72.33741,0.7254870315624025,-1.2625259768650714
m18586,18586,"Cold Spring, MN Urban Cluster",C,4324,1774,2.444,0.019,45.457426,-94.429757,0.7933817531816759,-1.648110171508163
m18613,18613,"Cold Spring, NY Urban Cluster",C,3276,1507,2.776,0.044,41.429505,-73.950278,0.7230812697214534,-1.2906758338651272
m18667,18667,"Coldwater, MI Urban Cluster",C,16876,6240,11.524,0.073,41.945982,-84.987111,0.7320954938822761,-1.4833049087078904
m18680,18680,"Coldwater, OH Urban Cluster",C,4473,1833,1.882,0.002,40.48269,-84.631441,0.7065562305641833,-1.4770972961573223
m18694,18694,"Coleman, TX Urban Cluster",C,4310,2356,2.5,0.0,31.823846,-99.426302,0.5554308933476274,-1.7353163329822232
m18712,18712,"Colfax, CA Urban Cluster",C,3144,1438,2.426,0.0,39.096029,-120.953354,0.6823544305051862,-2.1110342686302532
m18721,18721,"Colfax, WA Urban Cluster",C,2720,1369,1.291,0.004,46.881345,-117.364118,0.818233828013381,-2.0483902827991423
m18748,18748,"College Station--Bryan, TX Urbanized Area",U,171345,68363,71.424,0.133,30.626675,-96.331052,0.5345363176882343,-1.6812940293098686
m18760,18760,"Collinsville, OK Urban Cluster",C,4248,1828,2.798,0.005,36.363989,-95.837239,0.6346713372090003,-1.672675366570718
m18775,18775,"Colonial Beach, VA Urban Cluster",C,3693,2457,1.772,0.006,38.256935,-76.97469,0.6677094774714568,-1.3434617812019538
m18802,18802,"Colorado City, AZ--UT Urban Cluster",C,8233,1006,5.354,0.008,36.984137,-112.972901,0.645494961658658,-1.971749087979594
m18829,18829,"Colorado City, TX Urban Cluster",C,5948,1734,2.639,0.0,32.39646,-100.869397,0.5654248929906421,-1.760503092151291
m18856,18856,"Colorado Springs, CO Urbanized Area",U,559409,229712,187.836,0.381,38.872965,-104.770602,0.6784612292625175,-1.8285919641965558
m18883,18883,"Columbia, KY Urban Cluster",C,4579,1901,3.376,0.023,37.101613,-85.302172,0.6475453046507309,-1.4888037605025164
m18910,18910,"Columbia, MS Urban Cluster",C,7294,3106,6.56,0.025,31.254121,-89.82252,0.5454873162667027,-1.5676987164384568
m18937,18937,"Columbia, MO Urbanized Area",U,124748,53568,61.809,0.26,38.955624,-92.327874,0.6799039009689235,-1.6114253926664668
m18964,18964,"Columbia, SC Urbanized Area",U,549777,233477,380.025,6.107,34.036236,-81.077207,0.5940443831858248,-1.415064210470994
m18991,18991,"Columbia, TN Urban Cluster",C,34965,16072,24.823,0.0,35.61573,-87.0629,0.6216117540013201,-1.5195342613345713
m19018,19018,"Columbia City, IN Urban Cluster",C,9225,4113,6.13,0.021,41.15874,-85.481432,0.7183555289722909,-1.4919324377196412
m19045,19045,"Columbia Falls, MT Urban Cluster",C,6029,2551,4.547,0.001,48.372917,-114.194044,0.8442666704439379,-1.9930620539672756
m19060,19060,"Columbiana, AL Urban Cluster",C,2642,812,2.696,0.01,33.169471,-86.608767,0.5789164800947761,-1.5116081452426118
m19072,19072,"Columbiana, OH Urban Cluster",C,8101,3902,5.995,0.069,40.896283,-80.69474,0.7137747901773841,-1.408388902040769
m19099,19099,"Columbus, GA--AL Urbanized Area",U,253602,109208,147.047,1.231,32.484694,-84.981031,0.5669648668028467,-1.4831987926893693
m19126,19126,"Columbus, IN Urbanized Area",U,54933,24302,27.251,0.286,39.231561,-85.920718,0.6847199101469991,-1.499599424777557
m19153,19153,"Columbus, KS Urban Cluster",C,3272,1611,1.999,0.0,37.170063,-94.844214,0.648739982523721,-1.6553438107661012
m19180,19180,"Columbus, MS Urban Cluster",C,31174,13883,25.453,0.295,33.501897,-88.391502,0.5847184083140107,-1.5427227406831527
m19207,19207,"Columbus, NE Urban Cluster",C,22106,9306,8.027,0.175,41.436548,-97.354859,0.7232041932606713,-1.6991628323648342
m19234,19234,"Columbus, OH Urbanized Area",U,1368035,604025,510.463,7.406,40.021161,-82.968532,0.6985010299207463,-1.448074058946276
m19261,19261,"Columbus, TX Urban Cluster",C,4176,1884,2.833,0.01,29.702778,-96.557057,0.5184112730889362,-1.6852385606858382
m19288,19288,"Columbus, WI Urban Cluster",C,6623,2918,3.849,0.045,43.336063,-89.01832,0.7563569842016914,-1.5536627785939185
m19315,19315,"Columbus AFB, MS Urban Cluster",C,3140,1707,3.708,0.017,33.634273,-88.446563,0.5870288053646308,-1.5436837364225935
m19342,19342,"Colusa, CA Urban Cluster",C,6791,2622,2.265,0.0,39.208445,-122.012902,0.6843164598371081,-2.129526869813174
m19369,19369,"Colville, WA Urban Cluster",C,4966,2321,4.6,0.0,48.542792,-117.895127,0.8472315485107631,-2.057658138206865
m19396,19396,"Comanche, TX Urban Cluster",C,3988,1769,2.461,0.0,31.901532,-98.603219,0.5567867698303317,-1.7209508246150307
m19423,19423,"Comfort, TX Urban Cluster",C,2653,974,2.019,0.001,29.966986,-98.913282,0.5230225725990454,-1.7263624448536417
m19450,19450,"Commerce, GA Urban Cluster",C,6624,2830,6.359,0.017,34.21981,-83.463602,0.5972483539068808,-1.4567146604741241
m19477,19477,"Commerce, TX Urban Cluster",C,7717,3435,3.573,0.022,33.242665,-95.902233,0.5801939563874808,-1.6738097258647588
m19504,19504,"Concord, CA Urbanized Area",U,615968,244581,203.75,0.402,37.848003,-122.017105,0.6605722676546913,-2.1296002260016356
m19531,19531,"Concord, NH Urban Cluster",C,42611,18930,34.114,1.828,43.222199,-71.553482,0.7543696825022006,-1.2488438521664973
m19558,19558,"Concord, NC Urbanized Area",U,214881,90164,180.206,0.499,35.489602,-80.580668,0.6194104051223646,-1.4063979700564342
m19585,19585,"Concordia, KS Urban Cluster",C,5340,2513,2.496,0.0,39.567916,-97.654895,0.6905904123525445,-1.7043994484393479
m19597,19597,"Conesus Lake, NY Urban Cluster",C,4858,2911,3.979,2.438,42.806475,-77.708242,0.7471139299226396,-1.3562646788365433
m19612,19612,"Conneaut, OH Urban Cluster",C,14109,6257,15.068,0.026,41.934646,-80.610194,0.73189764335827,-1.4069132959713782
m19666,19666,"Connell, WA Urban Cluster",C,4076,883,2.71,0.0,46.679763,-118.852017,0.8147155584006258,-2.0743590192862733
m19693,19693,"Connersville, IN Urban Cluster",C,15347,7190,8.719,0.0,39.650043,-85.14427,0.69202379890733,-1.4860478507070325
m19720,19720,"Conrad, MT Urban Cluster",C,2578,1271,1.249,0.0,48.172796,-111.946753,0.8407739000915543,-1.9538394267668397
m19755,19755,"Conroe--The Woodlands, TX Urbanized Area",U,239938,92663,133.32,0.985,30.123632,-95.452341,0.5257565610591245,-1.6659576291863767
m19774,19774,"Constantine, MI Urban Cluster",C,4074,1762,3.234,0.085,41.840955,-85.667361,0.7302624269287841,-1.495177510944582
m19801,19801,"Conway, AR Urbanized Area",U,65277,27398,39.698,0.968,35.067613,-92.43724,0.6120453076651663,-1.6133341894562034
m19828,19828,"Cookeville, TN Urban Cluster",C,44207,19480,44.392,0.095,36.161823,-85.515552,0.6311428748734134,-1.492527944060422
m19882,19882,"Coolidge, AZ Urban Cluster",C,10919,4386,4.214,0.001,32.977829,-111.53151,0.5755716962096691,-1.9465920692209808
m19909,19909,"Coopersville, MI Urban Cluster",C,3951,1611,1.957,0.0,43.065181,-85.93626,0.7516292014173042,-1.4998706838499023
m19936,19936,"Coos Bay, OR Urban Cluster",C,31386,14685,16.48,1.893,43.379804,-124.243711,0.7571204086698062,-2.1684618318462965
m19990,19990,"Coquille, OR Urban Cluster",C,4359,2035,3.575,0.033,43.17851,-124.181586,0.7536071656052967,-2.167377546048495
m20044,20044,"Corcoran, CA Urban Cluster",C,25516,4168,6.552,0.0,36.085268,-119.563195,0.6298067380645491,-2.0867714169540217
m20071,20071,"Cordele, GA Urban Cluster",C,12416,5494,7.52,0.02,31.965331,-83.775635,0.5579002724398116,-1.4621606636989997
m20098,20098,"Corinth, MS Urban Cluster",C,12469,6095,11.981,0.0,34.931478,-88.513816,0.6096693036879638,-1.5448575227044372
m20125,20125,"Corinth, NY Urban Cluster",C,3995,1939,2.791,0.13,43.259938,-73.831618,0.7550283523086107,-1.2886048261747107
m20152,20152,"Cornelia--Baldwin, GA Urban Cluster",C,18578,6782,19.518,0.077,34.514406,-83.549005,0.6023900240700859,-1.458205224015205
m20179,20179,"Corning, AR Urban Cluster",C,3180,1511,2.095,0.026,36.412028,-90.58864,0.6355097759283659,-1.5810700329038359
m20206,20206,"Corning, CA Urban Cluster",C,8553,3150,3.866,0.0,39.93039,-122.178433,0.6969167771054187,-2.132415930777293
m20233,20233,"Corning, NY Urban Cluster",C,20477,9629,10.113,0.11,42.136518,-77.044939,0.7354209744258561,-1.3446878575481875
m20247,20247,"Corona de Tucson, AZ Urban Cluster",C,5469,2087,4.284,0.0,31.951468,-110.789468,0.5576583174456076,-1.933640993132897
m20287,20287,"Corpus Christi, TX Urbanized Area",U,320069,130858,120.282,4.722,27.745333,-97.412599,0.48424741291223583,-1.7001705854749356
m20314,20314,"Corry, PA Urban Cluster",C,6571,2840,4.01,0.001,41.928196,-79.633098,0.7317850696215163,-1.3898597536633115
m20341,20341,"Corsicana, TX Urban Cluster",C,22599,9024,12.638,0.088,32.090628,-96.472831,0.5600871176326829,-1.6837685396700537
m20368,20368,"Cortez, CO Urban Cluster",C,8380,3781,3.672,0.027,37.353679,-108.576935,0.6519446862830629,-1.8950250074738693
m20395,20395,"Cortland, NY Urban Cluster",C,27493,11001,10.669,0.047,42.604246,-76.182202,0.743584368029624,-1.3296302563194091
m20422,20422,"Corvallis, OR Urbanized Area",U,62433,26689,21.114,0.081,44.575091,-123.287357,0.7779821023260917,-2.1517703057316786
m20449,20449,"Corydon, IN Urban Cluster",C,5506,2491,3.672,0.0,38.22547,-86.140301,0.6671603096223168,-1.5034318711089638
m20476,20476,"Coshocton, OH Urban Cluster",C,11517,5613,5.237,0.043,40.263918,-81.857449,0.7027379388530102,-1.4286820023333398
m20503,20503,"Cottage Grove, OR Urban Cluster",C,11007,4746,5.294,0.068,43.789127,-123.06281,0.764264442723947,-2.147851221256203
m20530,20530,"Cottonport, LA Urban Cluster",C,3631,808,1.843,0.0,30.986236,-92.048374,0.5408118409999977,-1.6065471974071428
m20584,20584,"Cottonwood, CA Urban Cluster",C,4419,1731,3.387,0.0,40.388516,-122.307717,0.7049125841944102,-2.134672362247441
m20595,20595,"Cottonwood--Verde Village, AZ Urban Cluster",C,26650,12874,14.535,0.0,34.728478,-112.014829,0.6061262853064153,-1.9550275771084273
m20611,20611,"Cotulla, TX Urban Cluster",C,3694,1657,1.929,0.001,28.437087,-99.23684,0.4963207978260767,-1.7320095972748095
m20632,20632,"Country Lakes, MD Urban Cluster",C,2603,833,3.345,0.002,38.405786,-76.804639,0.6703074175163429,-1.340493831355645
m20665,20665,"Covington, IN Urban Cluster",C,2625,1192,1.11,0.0,40.140933,-87.390552,0.7005914456724449,-1.5252528675353154
m20692,20692,"Covington, OH Urban Cluster",C,2727,1212,1.24,0.0,40.118929,-84.349978,0.7002074034238362,-1.4721848400847815
m20719,20719,"Covington, TN Urban Cluster",C,8578,3558,6.627,0.0,35.563046,-89.655404,0.6206922447381993,-1.5647819920056942
m20746,20746,"Covington, VA Urban Cluster",C,8430,4240,8.041,0.171,37.781292,-79.985863,0.6594079410573934,-1.3960166643991092
m20773,20773,"Coxsackie, NY Urban Cluster",C,6341,1819,3.983,0.0,42.347104,-73.833431,0.7390963934844609,-1.2886364689940495
m20800,20800,"Cozad, NE Urban Cluster",C,3863,1827,1.822,0.0,40.860858,-99.98351,0.7131565072898651,-1.7450414472006757
m20827,20827,"Craig, CO Urban Cluster",C,10021,4272,5.685,0.0,40.519996,-107.556848,0.7072073430949323,-1.877221130667078
m20854,20854,"Crane, TX Urban Cluster",C,3907,1442,1.336,0.0,31.392816,-102.351652,0.5479080006727562,-1.7863733222554394
m20881,20881,"Crawfordsville, IN Urban Cluster",C,18012,8067,11.949,0.034,40.04364,-86.909951,0.6988933624833022,-1.5168647976969383
m20890,20890,"Crawfordville, FL Urban Cluster",C,8342,3354,9.562,0.0,30.185216,-84.347677,0.5268314046256727,-1.4721446800586933
m20908,20908,"Crescent City, CA Urban Cluster",C,18976,6690,11.877,0.061,41.784267,-124.183969,0.7292730346824134,-2.16741913724457
m20935,20935,"Crescent City, FL Urban Cluster",C,2812,1689,4.893,0.029,29.479776,-81.540949,0.5145191539504039,-1.4231580352507776
m20962,20962,"Cresco, IA Urban Cluster",C,3540,1706,1.65,0.0,43.376143,-92.114215,0.7570565121658906,-1.6076963396399486
m20980,20980,"Cresson, PA Urban Cluster",C,11106,3284,9.389,0.04,40.458992,-78.580415,0.7061426224380456,-1.3714869693335399
m21016,21016,"Creston, IA Urban Cluster",C,7617,3655,3.944,0.001,41.059127,-94.363,0.7166169541445018,-1.6469450420594092
m21043,21043,"Crestview, FL Urban Cluster",C,32432,13454,23.567,0.506,30.756157,-86.568536,0.5367962049103017,-1.5109059818312418
m21070,21070,"Creswell, OR Urban Cluster",C,6320,2564,3.594,0.021,43.912983,-123.015332,0.766426137722297,-2.147022573833941
m21097,21097,"Crete, NE Urban Cluster",C,6948,2383,2.52,0.014,40.624778,-96.957284,0.7090361339917569,-1.692223839591218
m21124,21124,"Crewe, VA Urban Cluster",C,4323,1247,2.784,0.014,37.186415,-78.175639,0.6490253787630071,-1.3644222954004874
m21151,21151,"Crisfield, MD Urban Cluster",C,3600,1928,2.184,0.02,37.984448,-75.843547,0.6629536821525751,-1.3237196115410679
m21178,21178,"Crittenden, KY Urban Cluster",C,4221,1598,3.311,0.023,38.756403,-84.616001,0.6764268385798078,-1.4768278173208143
m21205,21205,"Crockett, TX Urban Cluster",C,6292,2780,5.688,0.0,31.314266,-95.454161,0.5465370445453146,-1.665989394178763
m21220,21220,"Crooked Lake Park, FL Urban Cluster",C,4335,1961,3.704,0.246,27.846765,-81.560942,0.4860177352791188,-1.423506978928129
m21232,21232,"Crookston, MN Urban Cluster",C,7964,3274,4.054,0.0,47.775021,-96.607496,0.8338314166594339,-1.6861188873072517
m21259,21259,"Crooksville, OH Urban Cluster",C,4866,2089,2.73,0.014,39.772799,-82.088556,0.6941662952839082,-1.4327155804077463
m21286,21286,"Crosby, MN Urban Cluster",C,3478,1954,2.15,1.719,46.479232,-93.934414,0.8112156321983092,-1.6394648052314567
m21313,21313,"Cross City, FL Urban Cluster",C,3773,1148,3.475,0.0,29.628959,-83.111955,0.5171228884884065,-1.4505772625193636
m21340,21340,"Crossett, AR Urban Cluster",C,7835,3700,7.975,0.176,33.140514,-91.958877,0.5784110851032761,-1.6049851800864856
m21394,21394,"Crossville, TN Urban Cluster",C,16337,8038,21.179,1.117,35.933188,-85.042565,0.6271524413381162,-1.4842727635912913
m21421,21421,"Crowley, LA Urban Cluster",C,14908,6472,6.869,0.009,30.214652,-92.371693,0.5273451597442897,-1.6121901784913983
m21448,21448,"Crozet, VA Urban Cluster",C,5527,2215,3.489,0.023,38.064915,-78.693093,0.6643580962417773,-1.3734535714281022
m21502,21502,"Crystal City, TX Urban Cluster",C,7236,2586,3.235,0.001,28.691898,-99.826449,0.5007680887463759,-1.742300215624201
m21529,21529,"Crystal River, FL Urban Cluster",C,4388,2783,4.829,0.038,28.887752,-82.589046,0.5041863858995769,-1.4414507787810527
m21556,21556,"Crystal Springs, MS Urban Cluster",C,5269,2088,3.978,0.0,31.982557,-90.356623,0.5582009228567602,-1.5770205723332364
m21583,21583,"Cuba, MO Urban Cluster",C,3273,1518,2.07,0.0,38.062827,-91.401368,0.6643216537669956,-1.5952548124269845
m21610,21610,"Cuero, TX Urban Cluster",C,8099,2933,5.344,0.0,29.105099,-97.289519,0.5079798066689091,-1.6980224342315813
m21637,21637,"Cullman, AL Urban Cluster",C,18356,8466,22.248,0.325,34.179434,-86.843505,0.5965436597680955,-1.5157050962221579
m21664,21664,"Cullowhee, NC Urban Cluster",C,10837,4239,7.808,0.0,35.320013,-83.188619,0.6164505186972,-1.4519153017371127
m21691,21691,"Culpeper, VA Urban Cluster",C,17778,6984,7.575,0.021,38.467905,-78.003223,0.6713915985943893,-1.3614130685173689
m21718,21718,"Cumberland, KY Urban Cluster",C,3711,1903,2.342,0.033,36.973704,-82.982809,0.6453128714577975,-1.4483232396035832
m21745,21745,"Cumberland, MD--WV--PA Urbanized Area",U,51899,23143,32.63,0.249,39.647607,-78.804597,0.6919812826867514,-1.3753996833572457
m21760,21760,"Curwensville, PA Urban Cluster",C,2751,1288,1.543,0.03,40.974044,-78.523864,0.7151319756570274,-1.3704999681882446
